[
  {
    "station_name":"Alexandra Palace Rail Station",
    "latitude":51.5979250073,
    "longitude":-0.1202099313
  },
  {
    "station_name":"Achanalt Rail Station",
    "latitude":57.6095763828,
    "longitude":-4.913846165
  },
  {
    "station_name":"Aberdare Rail Station",
    "latitude":51.7150603368,
    "longitude":-3.4430947912
  },
  {
    "station_name":"Altnabreac Rail Station",
    "latitude":58.3881329239,
    "longitude":-3.7062873902
  },
  {
    "station_name":"Aberdeen Rail Station",
    "latitude":57.1436867734,
    "longitude":-2.0986925585
  },
  {
    "station_name":"Aber Rail Station",
    "latitude":51.5749656756,
    "longitude":-3.2298391052
  },
  {
    "station_name":"Abererch Rail Station",
    "latitude":52.8985982311,
    "longitude":-4.3741839689
  },
  {
    "station_name":"Abbey Wood (London) Rail Station",
    "latitude":51.4910611665,
    "longitude":0.1214217457
  },
  {
    "station_name":"Ashburys Rail Station",
    "latitude":53.4716521884,
    "longitude":-2.194434998
  },
  {
    "station_name":"Acton Bridge Rail Station",
    "latitude":53.2665207003,
    "longitude":-2.6031255204
  },
  {
    "station_name":"Acton Central Rail Station",
    "latitude":51.5087156784,
    "longitude":-0.2629477949
  },
  {
    "station_name":"Acocks Green Rail Station",
    "latitude":52.4493357815,
    "longitude":-1.8189696484
  },
  {
    "station_name":"Achnashellach Rail Station",
    "latitude":57.4820517208,
    "longitude":-5.3330497284
  },
  {
    "station_name":"Acklington Rail Station",
    "latitude":55.3070995797,
    "longitude":-1.6518483985
  },
  {
    "station_name":"Acle Rail Station",
    "latitude":52.6347061444,
    "longitude":1.5439384675
  },
  {
    "station_name":"Achnasheen Rail Station",
    "latitude":57.5792680938,
    "longitude":-5.0723280881
  },
  {
    "station_name":"Accrington Rail Station",
    "latitude":53.7529844843,
    "longitude":-2.3695474455
  },
  {
    "station_name":"Ascot Rail Station",
    "latitude":51.4062421592,
    "longitude":-0.6758156963
  },
  {
    "station_name":"Abercynon Rail Station",
    "latitude":51.6447111646,
    "longitude":-3.3270008927
  },
  {
    "station_name":"Adlington (Cheshire) Rail Station",
    "latitude":53.3195695329,
    "longitude":-2.1335617879
  },
  {
    "station_name":"Adderley Park Rail Station",
    "latitude":52.4830987434,
    "longitude":-1.8559397876
  },
  {
    "station_name":"Ardwick Rail Station",
    "latitude":53.471358298,
    "longitude":-2.213882234
  },
  {
    "station_name":"Adlington (Lancs) Rail Station",
    "latitude":53.6132582182,
    "longitude":-2.603069152
  },
  {
    "station_name":"Adisham Rail Station",
    "latitude":51.2412043148,
    "longitude":1.1991182098
  },
  {
    "station_name":"Ardrossan Town Rail Station",
    "latitude":55.6397026924,
    "longitude":-4.8126528377
  },
  {
    "station_name":"Airdrie Rail Station",
    "latitude":55.8639734432,
    "longitude":-3.9829014475
  },
  {
    "station_name":"Ardrossan Harbour Rail Station",
    "latitude":55.6398684301,
    "longitude":-4.8210878622
  },
  {
    "station_name":"Andover Rail Station",
    "latitude":51.2115409141,
    "longitude":-1.4922208179
  },
  {
    "station_name":"Addiewell Rail Station",
    "latitude":55.8434039199,
    "longitude":-3.6065211407
  },
  {
    "station_name":"Ashford International Rail Station",
    "latitude":51.143703647,
    "longitude":0.8762282027
  },
  {
    "station_name":"Ashford (Surrey) Rail Station",
    "latitude":51.4365050918,
    "longitude":-0.4680505426
  },
  {
    "station_name":"Ansdell & Fairhaven Rail Station",
    "latitude":53.7414755302,
    "longitude":-2.9930315929
  },
  {
    "station_name":"Abergele & Pensarn Rail Station",
    "latitude":53.2945885877,
    "longitude":-3.5826252049
  },
  {
    "station_name":"Argyle Street Rail Station",
    "latitude":55.8572976321,
    "longitude":-4.2506797284
  },
  {
    "station_name":"Aldrington Rail Station",
    "latitude":50.8363759964,
    "longitude":-0.1837938786
  },
  {
    "station_name":"Abergavenny Rail Station",
    "latitude":51.8166929204,
    "longitude":-3.0096529786
  },
  {
    "station_name":"Ashtead Rail Station",
    "latitude":51.3178707762,
    "longitude":-0.3075480044
  },
  {
    "station_name":"Ashton-under-Lyne Rail Station",
    "latitude":53.4912877289,
    "longitude":-2.0943117675
  },
  {
    "station_name":"Ashurst (Kent) Rail Station",
    "latitude":51.1286581521,
    "longitude":0.1526783965
  },
  {
    "station_name":"Aldershot Rail Station",
    "latitude":51.2464146675,
    "longitude":-0.7598418662
  },
  {
    "station_name":"Ash Vale Rail Station",
    "latitude":51.2722439454,
    "longitude":-0.721630982
  },
  {
    "station_name":"Aigburth Rail Station",
    "latitude":53.364579864,
    "longitude":-2.9271549702
  },
  {
    "station_name":"Aintree Rail Station",
    "latitude":53.4739239739,
    "longitude":-2.9562794487
  },
  {
    "station_name":"Airbles Rail Station",
    "latitude":55.7828281606,
    "longitude":-3.9941848819
  },
  {
    "station_name":"Albrighton Rail Station",
    "latitude":52.637955578,
    "longitude":-2.2688961662
  },
  {
    "station_name":"Alderley Edge Rail Station",
    "latitude":53.3037949434,
    "longitude":-2.2367975748
  },
  {
    "station_name":"Alfreton Rail Station",
    "latitude":53.1004491479,
    "longitude":-1.3696938892
  },
  {
    "station_name":"Aslockton Rail Station",
    "latitude":52.9515688778,
    "longitude":-0.8980931448
  },
  {
    "station_name":"Alnmouth Rail Station",
    "latitude":55.3927781339,
    "longitude":-1.6366531856
  },
  {
    "station_name":"Althorne Rail Station",
    "latitude":51.647874589,
    "longitude":0.7525126479
  },
  {
    "station_name":"Alloa Rail Station",
    "latitude":56.1177816937,
    "longitude":-3.7900478514
  },
  {
    "station_name":"Althorpe Rail Station",
    "latitude":53.5855202235,
    "longitude":-0.7331858491
  },
  {
    "station_name":"Alresford (Essex) Rail Station",
    "latitude":51.8540099196,
    "longitude":0.9974663385
  },
  {
    "station_name":"Altrincham Rail Station",
    "latitude":53.3877312834,
    "longitude":-2.3468882352
  },
  {
    "station_name":"Alvechurch Rail Station",
    "latitude":52.3460841489,
    "longitude":-1.96765319
  },
  {
    "station_name":"Allens West Rail Station",
    "latitude":54.5246329186,
    "longitude":-1.361128823
  },
  {
    "station_name":"Alexandria Rail Station",
    "latitude":55.9850750252,
    "longitude":-4.5774669847
  },
  {
    "station_name":"Ambergate Rail Station",
    "latitude":53.0605332632,
    "longitude":-1.4806950473
  },
  {
    "station_name":"Ammanford Rail Station",
    "latitude":51.7959802661,
    "longitude":-3.9967546569
  },
  {
    "station_name":"Acton Main Line Rail Station",
    "latitude":51.5171796932,
    "longitude":-0.2667334712
  },
  {
    "station_name":"Amersham Rail Station",
    "latitude":51.6742082152,
    "longitude":-0.6075738184
  },
  {
    "station_name":"Aldermaston Rail Station",
    "latitude":51.4019601992,
    "longitude":-1.1374044609
  },
  {
    "station_name":"Amberley Rail Station",
    "latitude":50.8966706624,
    "longitude":-0.5419699859
  },
  {
    "station_name":"Ancaster Rail Station",
    "latitude":52.9877078434,
    "longitude":-0.5356177511
  },
  {
    "station_name":"Anderston Rail Station",
    "latitude":55.8598905332,
    "longitude":-4.2709646678
  },
  {
    "station_name":"Ashurst New Forest Rail Station",
    "latitude":50.8898407705,
    "longitude":-1.5266232035
  },
  {
    "station_name":"Angmering Rail Station",
    "latitude":50.8165649857,
    "longitude":-0.4893702151
  },
  {
    "station_name":"Anniesland Rail Station",
    "latitude":55.8893432336,
    "longitude":-4.3219418416
  },
  {
    "station_name":"Annan Rail Station",
    "latitude":54.9838392542,
    "longitude":-3.2625828964
  },
  {
    "station_name":"Ainsdale Rail Station",
    "latitude":53.6020465522,
    "longitude":-3.0426494721
  },
  {
    "station_name":"Anerley Rail Station",
    "latitude":51.4121504955,
    "longitude":-0.0658599305
  },
  {
    "station_name":"Alton Rail Station",
    "latitude":51.151964195,
    "longitude":-0.9668980606
  },
  {
    "station_name":"Appley Bridge Rail Station",
    "latitude":53.5786855814,
    "longitude":-2.7192513076
  },
  {
    "station_name":"Appledore (Kent) Rail Station",
    "latitude":51.0332339326,
    "longitude":0.8163754751
  },
  {
    "station_name":"Appleford Rail Station",
    "latitude":51.6396427695,
    "longitude":-1.2421230581
  },
  {
    "station_name":"Aspley Guise Rail Station",
    "latitude":52.0212455205,
    "longitude":-0.6323124906
  },
  {
    "station_name":"Newcastle Airport Metro",
    "latitude":55.0359539314,
    "longitude":-1.7110611354
  },
  {
    "station_name":"Appleby Rail Station",
    "latitude":54.5803531214,
    "longitude":-2.4866970812
  },
  {
    "station_name":"Apsley Rail Station",
    "latitude":51.7325265818,
    "longitude":-0.462913617
  },
  {
    "station_name":"Apperley Bridge Rail Station",
    "latitude":53.8417623189,
    "longitude":-1.7058332
  },
  {
    "station_name":"Arbroath Rail Station",
    "latitude":56.5595623759,
    "longitude":-2.58893669
  },
  {
    "station_name":"Ardgay Rail Station",
    "latitude":57.8814343743,
    "longitude":-4.3620902545
  },
  {
    "station_name":"Arisaig Rail Station",
    "latitude":56.9125239651,
    "longitude":-5.8390581876
  },
  {
    "station_name":"Arlesey Rail Station",
    "latitude":52.0260393622,
    "longitude":-0.2662942214
  },
  {
    "station_name":"Armadale (W Lothian) Rail Station",
    "latitude":55.8857041796,
    "longitude":-3.6954045698
  },
  {
    "station_name":"Arnside Rail Station",
    "latitude":54.2027369524,
    "longitude":-2.8282411629
  },
  {
    "station_name":"Arram Rail Station",
    "latitude":53.8843617225,
    "longitude":-0.4265787094
  },
  {
    "station_name":"Arrochar & Tarbet Rail Station",
    "latitude":56.2039604882,
    "longitude":-4.7227536136
  },
  {
    "station_name":"Arundel Rail Station",
    "latitude":50.848204225,
    "longitude":-0.5461513877
  },
  {
    "station_name":"Ardrossan South Beach Rail Station",
    "latitude":55.6414123987,
    "longitude":-4.8011892639
  },
  {
    "station_name":"Ashchurch for Tewkesbury Rail Station",
    "latitude":51.9989119042,
    "longitude":-2.1087526816
  },
  {
    "station_name":"Ashfield Rail Station",
    "latitude":55.8889152278,
    "longitude":-4.2492001758
  },
  {
    "station_name":"Alsager Rail Station",
    "latitude":53.0930183471,
    "longitude":-2.2990577384
  },
  {
    "station_name":"Ash Rail Station",
    "latitude":51.2495930968,
    "longitude":-0.7127872134
  },
  {
    "station_name":"Askam Rail Station",
    "latitude":54.1889365481,
    "longitude":-3.2045108901
  },
  {
    "station_name":"Addlestone Rail Station",
    "latitude":51.3730427936,
    "longitude":-0.4844377608
  },
  {
    "station_name":"Aspatria Rail Station",
    "latitude":54.7589613565,
    "longitude":-3.3318751754
  },
  {
    "station_name":"Alness Rail Station",
    "latitude":57.6943767246,
    "longitude":-4.2497156226
  },
  {
    "station_name":"Aston Rail Station",
    "latitude":52.5042436334,
    "longitude":-1.8719289166
  },
  {
    "station_name":"Ashley Rail Station",
    "latitude":53.3557384507,
    "longitude":-2.3414591344
  },
  {
    "station_name":"Attenborough Rail Station",
    "latitude":52.9062307659,
    "longitude":-1.2314110309
  },
  {
    "station_name":"Atherstone Rail Station",
    "latitude":52.5789873633,
    "longitude":-1.5528024825
  },
  {
    "station_name":"Attleborough Rail Station",
    "latitude":52.5145682909,
    "longitude":1.0223710881
  },
  {
    "station_name":"Atherton Rail Station",
    "latitude":53.5291592416,
    "longitude":-2.4789715129
  },
  {
    "station_name":"Attadale Rail Station",
    "latitude":57.395013788,
    "longitude":-5.4555693529
  },
  {
    "station_name":"Audley End Rail Station",
    "latitude":52.0044503988,
    "longitude":0.2071861287
  },
  {
    "station_name":"Aughton Park Rail Station",
    "latitude":53.5542616334,
    "longitude":-2.8952192106
  },
  {
    "station_name":"Ardlui Rail Station",
    "latitude":56.3019554792,
    "longitude":-4.7216411129
  },
  {
    "station_name":"Auchinleck Rail Station",
    "latitude":55.4702735607,
    "longitude":-4.2953352235
  },
  {
    "station_name":"Aberdour Rail Station",
    "latitude":56.0545845646,
    "longitude":-3.3005596025
  },
  {
    "station_name":"Ascott-under-Wychwood Rail Station",
    "latitude":51.8673469281,
    "longitude":-1.5640381523
  },
  {
    "station_name":"Avoncliff Rail Station",
    "latitude":51.3396455319,
    "longitude":-2.2813231272
  },
  {
    "station_name":"Aviemore Rail Station",
    "latitude":57.1884955899,
    "longitude":-3.8288664748
  },
  {
    "station_name":"Avonmouth Rail Station",
    "latitude":51.5003586482,
    "longitude":-2.6994701634
  },
  {
    "station_name":"Aylesbury Vale Parkway Rail Station",
    "latitude":51.8311641936,
    "longitude":-0.860160203
  },
  {
    "station_name":"Aberdovey Rail Station",
    "latitude":52.5439709134,
    "longitude":-4.0570763906
  },
  {
    "station_name":"Adwick Rail Station",
    "latitude":53.5723385016,
    "longitude":-1.1803591649
  },
  {
    "station_name":"Ashwell & Morden Rail Station",
    "latitude":52.0307801801,
    "longitude":-0.1097609643
  },
  {
    "station_name":"Armathwaite Rail Station",
    "latitude":54.8094705871,
    "longitude":-2.7720762415
  },
  {
    "station_name":"Axminster Rail Station",
    "latitude":50.7792590196,
    "longitude":-3.0047301649
  },
  {
    "station_name":"Alexandra Parade Rail Station",
    "latitude":55.8631647206,
    "longitude":-4.2106343183
  },
  {
    "station_name":"Aylesham Rail Station",
    "latitude":51.2272573443,
    "longitude":1.2094822749
  },
  {
    "station_name":"Aylesford Rail Station",
    "latitude":51.3013150665,
    "longitude":0.4661994822
  },
  {
    "station_name":"Albany Park Rail Station",
    "latitude":51.4354510748,
    "longitude":0.1257631402
  },
  {
    "station_name":"Ayr Rail Station",
    "latitude":55.4581420821,
    "longitude":-4.6258547017
  },
  {
    "station_name":"Aylesbury Rail Station",
    "latitude":51.8138958856,
    "longitude":-0.8150732917
  },
  {
    "station_name":"Aberystwyth Rail Station",
    "latitude":52.4140589056,
    "longitude":-4.081904916
  },
  {
    "station_name":"Barnham Rail Station",
    "latitude":50.8308955044,
    "longitude":-0.6396586529
  },
  {
    "station_name":"Balcombe Rail Station",
    "latitude":51.0555161298,
    "longitude":-0.1369064512
  },
  {
    "station_name":"Bache Rail Station",
    "latitude":53.2087996005,
    "longitude":-2.8916714556
  },
  {
    "station_name":"Banstead Rail Station",
    "latitude":51.3293456873,
    "longitude":-0.2131338747
  },
  {
    "station_name":"Bagshot Rail Station",
    "latitude":51.3643658384,
    "longitude":-0.688644212
  },
  {
    "station_name":"Bank Hall Rail Station",
    "latitude":53.4375081504,
    "longitude":-2.9875109807
  },
  {
    "station_name":"Blairhill Rail Station",
    "latitude":55.866445195,
    "longitude":-4.0432793703
  },
  {
    "station_name":"Baglan Rail Station",
    "latitude":51.6155428964,
    "longitude":-3.8111528304
  },
  {
    "station_name":"Battersea Park Rail Station",
    "latitude":51.4769589055,
    "longitude":-0.1475087424
  },
  {
    "station_name":"Balham Rail Station",
    "latitude":51.4432235254,
    "longitude":-0.1523989843
  },
  {
    "station_name":"Bamford Rail Station",
    "latitude":53.3390149874,
    "longitude":-1.6890804845
  },
  {
    "station_name":"Banbury Rail Station",
    "latitude":52.0603171415,
    "longitude":-1.3281174658
  },
  {
    "station_name":"Bare Lane Rail Station",
    "latitude":54.0745502872,
    "longitude":-2.8353285199
  },
  {
    "station_name":"Bere Alston Rail Station",
    "latitude":50.4855801051,
    "longitude":-4.2003841017
  },
  {
    "station_name":"Battle Rail Station",
    "latitude":50.9129099302,
    "longitude":0.494731748
  },
  {
    "station_name":"Barton-on-Humber Rail Station",
    "latitude":53.6889361427,
    "longitude":-0.443441463
  },
  {
    "station_name":"Barrow Haven Rail Station",
    "latitude":53.6974399715,
    "longitude":-0.3929610176
  },
  {
    "station_name":"Blackwater Rail Station",
    "latitude":51.3315799276,
    "longitude":-0.7767238015
  },
  {
    "station_name":"Bayford Rail Station",
    "latitude":51.7577191097,
    "longitude":-0.0955835363
  },
  {
    "station_name":"Bishopbriggs Rail Station",
    "latitude":55.9038715243,
    "longitude":-4.2249012111
  },
  {
    "station_name":"Bilbrook Rail Station",
    "latitude":52.6237315662,
    "longitude":-2.1860832074
  },
  {
    "station_name":"Bat & Ball Rail Station",
    "latitude":51.28975765,
    "longitude":0.1942546658
  },
  {
    "station_name":"Blackburn Rail Station",
    "latitude":53.7465295919,
    "longitude":-2.4791202443
  },
  {
    "station_name":"Bordesley Rail Station",
    "latitude":52.4718857429,
    "longitude":-1.877763734
  },
  {
    "station_name":"Berry Brow Rail Station",
    "latitude":53.6210542572,
    "longitude":-1.793433127
  },
  {
    "station_name":"Burscough Bridge Rail Station",
    "latitude":53.6052706223,
    "longitude":-2.8408791461
  },
  {
    "station_name":"Beccles Rail Station",
    "latitude":52.4585445204,
    "longitude":1.5695203477
  },
  {
    "station_name":"Bracknell Rail Station",
    "latitude":51.4130905636,
    "longitude":-0.7516868278
  },
  {
    "station_name":"Beaconsfield Rail Station",
    "latitude":51.6112923305,
    "longitude":-0.6438028303
  },
  {
    "station_name":"Birchgrove Rail Station",
    "latitude":51.5215559616,
    "longitude":-3.2018626211
  },
  {
    "station_name":"Birchington-on-Sea Rail Station",
    "latitude":51.37749655,
    "longitude":1.3014357084
  },
  {
    "station_name":"Burscough Junction Rail Station",
    "latitude":53.5975334888,
    "longitude":-2.8406044888
  },
  {
    "station_name":"Buckley Rail Station",
    "latitude":53.1630498684,
    "longitude":-3.0559258882
  },
  {
    "station_name":"Branchton Rail Station",
    "latitude":55.9405880748,
    "longitude":-4.8035281728
  },
  {
    "station_name":"Bicester North Rail Station",
    "latitude":51.9034889722,
    "longitude":-1.1503639712
  },
  {
    "station_name":"Brockenhurst Rail Station",
    "latitude":50.8168300371,
    "longitude":-1.5735227393
  },
  {
    "station_name":"Bruce Grove Rail Station",
    "latitude":51.5939593358,
    "longitude":-0.0698420983
  },
  {
    "station_name":"Brockley Rail Station",
    "latitude":51.4646472415,
    "longitude":-0.0375111039
  },
  {
    "station_name":"Brundall Rail Station",
    "latitude":52.6195070541,
    "longitude":1.4393221465
  },
  {
    "station_name":"Broadbottom Rail Station",
    "latitude":53.4409884275,
    "longitude":-2.0165194714
  },
  {
    "station_name":"Bridgeton Rail Station",
    "latitude":55.8489565185,
    "longitude":-4.2260423916
  },
  {
    "station_name":"Bedhampton Rail Station",
    "latitude":50.8539453593,
    "longitude":-0.9958127279
  },
  {
    "station_name":"Bradford Interchange Rail Station",
    "latitude":53.7910884508,
    "longitude":-1.7495992021
  },
  {
    "station_name":"Baldock Rail Station",
    "latitude":51.9928784919,
    "longitude":-0.1875367625
  },
  {
    "station_name":"Birkdale Rail Station",
    "latitude":53.6340637332,
    "longitude":-3.0144470298
  },
  {
    "station_name":"Bedford Rail Station",
    "latitude":52.1361978063,
    "longitude":-0.4794210009
  },
  {
    "station_name":"Brading Rail Station",
    "latitude":50.6783584598,
    "longitude":-1.1387118948
  },
  {
    "station_name":"Bradford Forster Square Rail Station",
    "latitude":53.7969375902,
    "longitude":-1.7529651428
  },
  {
    "station_name":"Bridlington Rail Station",
    "latitude":54.0841498279,
    "longitude":-0.198733799
  },
  {
    "station_name":"Bedwyn Rail Station",
    "latitude":51.3796362626,
    "longitude":-1.5987734873
  },
  {
    "station_name":"Bredbury Rail Station",
    "latitude":53.423168059,
    "longitude":-2.1104866302
  },
  {
    "station_name":"Bridge of Allan Rail Station",
    "latitude":56.1566272012,
    "longitude":-3.9572209128
  },
  {
    "station_name":"Bebington Rail Station",
    "latitude":53.3576688627,
    "longitude":-3.0036346698
  },
  {
    "station_name":"Beckenham Hill Rail Station",
    "latitude":51.4245803532,
    "longitude":-0.0159250385
  },
  {
    "station_name":"Beeston Rail Station",
    "latitude":52.920772808,
    "longitude":-1.2076539126
  },
  {
    "station_name":"Benfleet Rail Station",
    "latitude":51.543946833,
    "longitude":0.5617405199
  },
  {
    "station_name":"Beltring Rail Station",
    "latitude":51.2047052539,
    "longitude":0.4035240323
  },
  {
    "station_name":"Bedworth Rail Station",
    "latitude":52.4793121537,
    "longitude":-1.4673840381
  },
  {
    "station_name":"Beauly Rail Station",
    "latitude":57.4782638344,
    "longitude":-4.4698634331
  },
  {
    "station_name":"Bempton Rail Station",
    "latitude":54.1276779105,
    "longitude":-0.1804704307
  },
  {
    "station_name":"Bentham Rail Station",
    "latitude":54.115527405,
    "longitude":-2.5106784228
  },
  {
    "station_name":"Bermuda Park Rail Station",
    "latitude":52.5014490814,
    "longitude":-1.4721692914
  },
  {
    "station_name":"Bearley Rail Station",
    "latitude":52.2444229433,
    "longitude":-1.7502469172
  },
  {
    "station_name":"Bescar Lane Rail Station",
    "latitude":53.6238666357,
    "longitude":-2.914609859
  },
  {
    "station_name":"Bethnal Green Rail Station",
    "latitude":51.5239168448,
    "longitude":-0.0595413255
  },
  {
    "station_name":"Beaulieu Road Rail Station",
    "latitude":50.8550379245,
    "longitude":-1.5047402125
  },
  {
    "station_name":"Beverley Rail Station",
    "latitude":53.8422910042,
    "longitude":-0.4229880841
  },
  {
    "station_name":"Bexhill Rail Station",
    "latitude":50.8410361246,
    "longitude":0.4770465179
  },
  {
    "station_name":"Ben Rhydding Rail Station",
    "latitude":53.9257271035,
    "longitude":-1.797433526
  },
  {
    "station_name":"Brentford Rail Station",
    "latitude":51.4875455966,
    "longitude":-0.3096291503
  },
  {
    "station_name":"Bere Ferrers Rail Station",
    "latitude":50.4512627598,
    "longitude":-4.1814634554
  },
  {
    "station_name":"Blaenau Ffestiniog Rail Station",
    "latitude":52.9945625755,
    "longitude":-3.9386014215
  },
  {
    "station_name":"Byfleet & New Haw Rail Station",
    "latitude":51.3497933814,
    "longitude":-0.4813698884
  },
  {
    "station_name":"London Blackfriars Rail Station",
    "latitude":51.511809604,
    "longitude":-0.1033064322
  },
  {
    "station_name":"Brundall Gardens Rail Station",
    "latitude":52.6234667847,
    "longitude":1.4184395543
  },
  {
    "station_name":"Bargoed Rail Station",
    "latitude":51.6923106201,
    "longitude":-3.2296893004
  },
  {
    "station_name":"Broad Green Rail Station",
    "latitude":53.4065176265,
    "longitude":-2.8934838097
  },
  {
    "station_name":"Brigg Rail Station",
    "latitude":53.5491644813,
    "longitude":-0.4861278561
  },
  {
    "station_name":"Brighouse Rail Station",
    "latitude":53.6982108642,
    "longitude":-1.7794410593
  },
  {
    "station_name":"Bargeddie Rail Station",
    "latitude":55.8512854533,
    "longitude":-4.073795488
  },
  {
    "station_name":"Bugle Rail Station",
    "latitude":50.4003357574,
    "longitude":-4.7921412594
  },
  {
    "station_name":"Bellingham Rail Station",
    "latitude":51.432910924,
    "longitude":-0.0193048772
  },
  {
    "station_name":"Bridgend Rail Station",
    "latitude":51.5069726538,
    "longitude":-3.5752917878
  },
  {
    "station_name":"Bogston Rail Station",
    "latitude":55.9370336273,
    "longitude":-4.7113815133
  },
  {
    "station_name":"Balloch Rail Station",
    "latitude":56.0029254961,
    "longitude":-4.5834681974
  },
  {
    "station_name":"Brithdir Rail Station",
    "latitude":51.7103040613,
    "longitude":-3.2287299229
  },
  {
    "station_name":"Bathgate Rail Station",
    "latitude":55.8971463148,
    "longitude":-3.6360891747
  },
  {
    "station_name":"Birmingham International Rail Station",
    "latitude":52.4508199122,
    "longitude":-1.7258497513
  },
  {
    "station_name":"Bush Hill Park Rail Station",
    "latitude":51.6415193249,
    "longitude":-0.0691949356
  },
  {
    "station_name":"Birmingham New Street Rail Station",
    "latitude":52.4778312827,
    "longitude":-1.9002004707
  },
  {
    "station_name":"Blackhorse Road Rail Station",
    "latitude":51.5866055024,
    "longitude":-0.041209942
  },
  {
    "station_name":"Builth Road Rail Station",
    "latitude":52.1693300616,
    "longitude":-3.4270408474
  },
  {
    "station_name":"Brockholes Rail Station",
    "latitude":53.5969856546,
    "longitude":-1.7696922549
  },
  {
    "station_name":"Bishop Auckland Rail Station",
    "latitude":54.6572030524,
    "longitude":-1.6777249795
  },
  {
    "station_name":"Billericay Rail Station",
    "latitude":51.6288849556,
    "longitude":0.4186576571
  },
  {
    "station_name":"Bidston Rail Station",
    "latitude":53.4091524654,
    "longitude":-3.0785590277
  },
  {
    "station_name":"Barrow-in-Furness Rail Station",
    "latitude":54.1190066162,
    "longitude":-3.2261172119
  },
  {
    "station_name":"Billingshurst Rail Station",
    "latitude":51.0151974096,
    "longitude":-0.4502767801
  },
  {
    "station_name":"Birkbeck Rail Station",
    "latitude":51.403888888,
    "longitude":-0.0557126082
  },
  {
    "station_name":"Billingham Rail Station",
    "latitude":54.6056166679,
    "longitude":-1.2797344554
  },
  {
    "station_name":"Bingham Rail Station",
    "latitude":52.9542094023,
    "longitude":-0.9515394619
  },
  {
    "station_name":"Baillieston Rail Station",
    "latitude":55.8444952694,
    "longitude":-4.1136857366
  },
  {
    "station_name":"Bishopstone Rail Station",
    "latitude":50.7801363721,
    "longitude":0.0827845347
  },
  {
    "station_name":"Bishops Stortford Rail Station",
    "latitude":51.8666972924,
    "longitude":0.1649202653
  },
  {
    "station_name":"Bicester Village Rail Station",
    "latitude":51.8930294144,
    "longitude":-1.1487446761
  },
  {
    "station_name":"Biggleswade Rail Station",
    "latitude":52.0846893974,
    "longitude":-0.2611631855
  },
  {
    "station_name":"Bingley Rail Station",
    "latitude":53.8486270204,
    "longitude":-1.8373250124
  },
  {
    "station_name":"Bookham Rail Station",
    "latitude":51.2887348796,
    "longitude":-0.3839979684
  },
  {
    "station_name":"Birkenhead Central Rail Station",
    "latitude":53.388328806,
    "longitude":-3.0208206224
  },
  {
    "station_name":"Blakedown Rail Station",
    "latitude":52.406413288,
    "longitude":-2.1768606091
  },
  {
    "station_name":"Barking Rail Station",
    "latitude":51.5394940483,
    "longitude":0.0809293557
  },
  {
    "station_name":"Blackheath Rail Station",
    "latitude":51.4657947771,
    "longitude":0.0088974464
  },
  {
    "station_name":"Beckenham Junction Rail Station",
    "latitude":51.4111710618,
    "longitude":-0.0259963666
  },
  {
    "station_name":"Bickley Rail Station",
    "latitude":51.4001025009,
    "longitude":0.0452659962
  },
  {
    "station_name":"Berkhamsted Rail Station",
    "latitude":51.7631393379,
    "longitude":-0.5619899853
  },
  {
    "station_name":"Birkenhead North Rail Station",
    "latitude":53.4044504204,
    "longitude":-3.057532076
  },
  {
    "station_name":"Brookwood Rail Station",
    "latitude":51.3037544754,
    "longitude":-0.6357308777
  },
  {
    "station_name":"Birkenhead Park Rail Station",
    "latitude":53.3974209727,
    "longitude":-3.039100208
  },
  {
    "station_name":"Birkenhead Hamilton Square Rail Station",
    "latitude":53.3947090805,
    "longitude":-3.013679563
  },
  {
    "station_name":"Blackridge Rail Station",
    "latitude":55.8842459211,
    "longitude":-3.7507875146
  },
  {
    "station_name":"Bekesbourne Rail Station",
    "latitude":51.2613599688,
    "longitude":1.136737067
  },
  {
    "station_name":"Blake Street Rail Station",
    "latitude":52.6048991066,
    "longitude":-1.8449076544
  },
  {
    "station_name":"Berkswell Rail Station",
    "latitude":52.3958946388,
    "longitude":-1.6428309089
  },
  {
    "station_name":"Blair Atholl Rail Station",
    "latitude":56.7655325077,
    "longitude":-3.8502251597
  },
  {
    "station_name":"Battlesbridge Rail Station",
    "latitude":51.6248280358,
    "longitude":0.5653129218
  },
  {
    "station_name":"Baildon Rail Station",
    "latitude":53.8502374199,
    "longitude":-1.7536396791
  },
  {
    "station_name":"Bramley (West Yorks) Rail Station",
    "latitude":53.8053627078,
    "longitude":-1.6372110715
  },
  {
    "station_name":"Bellgrove Rail Station",
    "latitude":55.8566980297,
    "longitude":-4.2243600625
  },
  {
    "station_name":"Bellshill Rail Station",
    "latitude":55.8170582892,
    "longitude":-4.0244880674
  },
  {
    "station_name":"Blackrod Rail Station",
    "latitude":53.5915357166,
    "longitude":-2.5695231754
  },
  {
    "station_name":"Bardon Mill Rail Station",
    "latitude":54.9744979891,
    "longitude":-2.346513133
  },
  {
    "station_name":"Belmont Rail Station",
    "latitude":51.3438116974,
    "longitude":-0.1988301486
  },
  {
    "station_name":"Blundellsands & Crosby Rail Station",
    "latitude":53.4876981044,
    "longitude":-3.0398576774
  },
  {
    "station_name":"Blaydon Rail Station",
    "latitude":54.9657939357,
    "longitude":-1.7125935978
  },
  {
    "station_name":"Belper Rail Station",
    "latitude":53.0237754008,
    "longitude":-1.482508538
  },
  {
    "station_name":"Blantyre Rail Station",
    "latitude":55.7973203505,
    "longitude":-4.0869580948
  },
  {
    "station_name":"Belle Vue Rail Station",
    "latitude":53.4623891164,
    "longitude":-2.1805056874
  },
  {
    "station_name":"Bulwell Rail Station",
    "latitude":52.9997132956,
    "longitude":-1.1962272378
  },
  {
    "station_name":"Bloxwich Rail Station",
    "latitude":52.6182145823,
    "longitude":-2.0114721566
  },
  {
    "station_name":"Bletchley Rail Station",
    "latitude":51.9953423523,
    "longitude":-0.7362994344
  },
  {
    "station_name":"Bamber Bridge Rail Station",
    "latitude":53.7268807835,
    "longitude":-2.6607719493
  },
  {
    "station_name":"Bromley Cross Rail Station",
    "latitude":53.61405521,
    "longitude":-2.4108970227
  },
  {
    "station_name":"Brimsdown Rail Station",
    "latitude":51.6555835568,
    "longitude":-0.0307911888
  },
  {
    "station_name":"Broome Rail Station",
    "latitude":52.4227839595,
    "longitude":-2.8852059507
  },
  {
    "station_name":"Broomfleet Rail Station",
    "latitude":53.7402272872,
    "longitude":-0.6718345795
  },
  {
    "station_name":"Barming Rail Station",
    "latitude":51.2848921433,
    "longitude":0.4789874974
  },
  {
    "station_name":"Bournemouth Rail Station",
    "latitude":50.7272603225,
    "longitude":-1.8644946471
  },
  {
    "station_name":"Bramhall Rail Station",
    "latitude":53.3606279318,
    "longitude":-2.1635920263
  },
  {
    "station_name":"Bromley North Rail Station",
    "latitude":51.4083255508,
    "longitude":0.0170184004
  },
  {
    "station_name":"Birmingham Moor Street Rail Station",
    "latitude":52.4790920668,
    "longitude":-1.8924677323
  },
  {
    "station_name":"Brampton (Cumbria) Rail Station",
    "latitude":54.9323952275,
    "longitude":-2.7029523076
  },
  {
    "station_name":"Bromborough Rake Rail Station",
    "latitude":53.3299208626,
    "longitude":-2.9894688327
  },
  {
    "station_name":"Bromley South Rail Station",
    "latitude":51.3999742022,
    "longitude":0.0173696569
  },
  {
    "station_name":"Bedminster Rail Station",
    "latitude":51.4400845068,
    "longitude":-2.5941516846
  },
  {
    "station_name":"Bromsgrove Rail Station",
    "latitude":52.3222981835,
    "longitude":-2.0473389281
  },
  {
    "station_name":"Bramley (Hants) Rail Station",
    "latitude":51.330292014,
    "longitude":-1.0609834929
  },
  {
    "station_name":"Burnage Rail Station",
    "latitude":53.4211811715,
    "longitude":-2.2156768396
  },
  {
    "station_name":"Burnley Central Rail Station",
    "latitude":53.7935247085,
    "longitude":-2.2449718815
  },
  {
    "station_name":"Brandon Rail Station",
    "latitude":52.4540242165,
    "longitude":0.6247556786
  },
  {
    "station_name":"Bourne End Rail Station",
    "latitude":51.5771193996,
    "longitude":-0.7104544193
  },
  {
    "station_name":"Briton Ferry Rail Station",
    "latitude":51.6378987804,
    "longitude":-3.8192683057
  },
  {
    "station_name":"Bangor (Gwynedd) Rail Station",
    "latitude":53.2222979654,
    "longitude":-4.1358869294
  },
  {
    "station_name":"Barnehurst Rail Station",
    "latitude":51.4649576152,
    "longitude":0.1596730747
  },
  {
    "station_name":"Barnes Bridge Rail Station",
    "latitude":51.4720070868,
    "longitude":-0.2526072102
  },
  {
    "station_name":"Barnhill Rail Station",
    "latitude":55.8774834443,
    "longitude":-4.2229911506
  },
  {
    "station_name":"Burnham (Berks) Rail Station",
    "latitude":51.5235064374,
    "longitude":-0.6463561439
  },
  {
    "station_name":"Barnstaple Rail Station",
    "latitude":51.0739644921,
    "longitude":-4.0631402025
  },
  {
    "station_name":"Brockley Whins Rail Station",
    "latitude":54.9595502728,
    "longitude":-1.4613667215
  },
  {
    "station_name":"Barnes Rail Station",
    "latitude":51.4670846365,
    "longitude":-0.2421410454
  },
  {
    "station_name":"Brinnington Rail Station",
    "latitude":53.432131208,
    "longitude":-2.1351183485
  },
  {
    "station_name":"Banavie Rail Station",
    "latitude":56.8432899877,
    "longitude":-5.0954121623
  },
  {
    "station_name":"Bootle New Strand Rail Station",
    "latitude":53.4534030856,
    "longitude":-2.9947465497
  },
  {
    "station_name":"Barnsley Rail Station",
    "latitude":53.5543175422,
    "longitude":-1.47716617
  },
  {
    "station_name":"Bradford-on-Avon Rail Station",
    "latitude":51.3449090983,
    "longitude":-2.2523240424
  },
  {
    "station_name":"Bootle (Cumbria) Rail Station",
    "latitude":54.291308954,
    "longitude":-3.3938621381
  },
  {
    "station_name":"Bodmin Parkway Rail Station",
    "latitude":50.4458496871,
    "longitude":-4.6629674421
  },
  {
    "station_name":"Botley Rail Station",
    "latitude":50.9164438022,
    "longitude":-1.2592242694
  },
  {
    "station_name":"Bognor Regis Rail Station",
    "latitude":50.786547177,
    "longitude":-0.6761573725
  },
  {
    "station_name":"Bosham Rail Station",
    "latitude":50.8427366135,
    "longitude":-0.8474129936
  },
  {
    "station_name":"Bromborough Rail Station",
    "latitude":53.321860927,
    "longitude":-2.9868952277
  },
  {
    "station_name":"Bolton Rail Station",
    "latitude":53.5741575045,
    "longitude":-2.425822783
  },
  {
    "station_name":"Bowes Park Rail Station",
    "latitude":51.6070128955,
    "longitude":-0.1205568702
  },
  {
    "station_name":"Bodorgan Rail Station",
    "latitude":53.2043181126,
    "longitude":-4.4180098996
  },
  {
    "station_name":"Bootle Oriel Road Rail Station",
    "latitude":53.4466353518,
    "longitude":-2.9957327823
  },
  {
    "station_name":"Blackpool Pleasure Beach Rail Station",
    "latitude":53.7879651191,
    "longitude":-3.0538730548
  },
  {
    "station_name":"Penychain Rail Station",
    "latitude":52.9028982685,
    "longitude":-4.3387298378
  },
  {
    "station_name":"Brookmans Park Rail Station",
    "latitude":51.7210644329,
    "longitude":-0.204525873
  },
  {
    "station_name":"Blackpool North Rail Station",
    "latitude":53.8219272752,
    "longitude":-3.0492707494
  },
  {
    "station_name":"Blackpool South Rail Station",
    "latitude":53.7987134952,
    "longitude":-3.0489347667
  },
  {
    "station_name":"Bishopton Rail Station",
    "latitude":55.9022563659,
    "longitude":-4.5004702272
  },
  {
    "station_name":"Bristol Parkway Rail Station",
    "latitude":51.5137984154,
    "longitude":-2.5421644857
  },
  {
    "station_name":"Brora Rail Station",
    "latitude":58.012933425,
    "longitude":-3.8522865622
  },
  {
    "station_name":"Breich Rail Station",
    "latitude":55.8273074741,
    "longitude":-3.6681187271
  },
  {
    "station_name":"Brentwood Rail Station",
    "latitude":51.6136062194,
    "longitude":0.2996132443
  },
  {
    "station_name":"Brierfield Rail Station",
    "latitude":53.8239929448,
    "longitude":-2.2364914709
  },
  {
    "station_name":"Borough Green & Wrotham Rail Station",
    "latitude":51.293215966,
    "longitude":0.3062721999
  },
  {
    "station_name":"Borth Rail Station",
    "latitude":52.4910411643,
    "longitude":-4.0501863389
  },
  {
    "station_name":"Bristol Temple Meads Rail Station",
    "latitude":51.4491404983,
    "longitude":-2.5813170589
  },
  {
    "station_name":"Berwick (Sussex) Rail Station",
    "latitude":50.8403713146,
    "longitude":0.1660450404
  },
  {
    "station_name":"Barrhill Rail Station",
    "latitude":55.0970097604,
    "longitude":-4.7817610115
  },
  {
    "station_name":"Barmouth Rail Station",
    "latitude":52.7229049113,
    "longitude":-4.0566037471
  },
  {
    "station_name":"Bearsden Rail Station",
    "latitude":55.9171219632,
    "longitude":-4.3320048257
  },
  {
    "station_name":"Bridge of Orchy Rail Station",
    "latitude":56.5158519882,
    "longitude":-4.7629778286
  },
  {
    "station_name":"Brampton (Suffolk) Rail Station",
    "latitude":52.39545585,
    "longitude":1.5438396721
  },
  {
    "station_name":"Barrhead Rail Station",
    "latitude":55.8037470316,
    "longitude":-4.3972682443
  },
  {
    "station_name":"Berrylands Rail Station",
    "latitude":51.3990426839,
    "longitude":-0.280691098
  },
  {
    "station_name":"Barlaston Rail Station",
    "latitude":52.9428868109,
    "longitude":-2.1681101939
  },
  {
    "station_name":"Bruton Rail Station",
    "latitude":51.1116312549,
    "longitude":-2.4470735628
  },
  {
    "station_name":"Bournville Rail Station",
    "latitude":52.4269759491,
    "longitude":-1.9264177275
  },
  {
    "station_name":"Brunswick Rail Station",
    "latitude":53.3832558566,
    "longitude":-2.9760770621
  },
  {
    "station_name":"Brixton Rail Station",
    "latitude":51.4632979174,
    "longitude":-0.1141578263
  },
  {
    "station_name":"Barry Rail Station",
    "latitude":51.3967799856,
    "longitude":-3.2849950221
  },
  {
    "station_name":"Bleasby Rail Station",
    "latitude":53.0413834346,
    "longitude":-0.9436832322
  },
  {
    "station_name":"Bescot Stadium Rail Station",
    "latitude":52.5631069514,
    "longitude":-1.9911001339
  },
  {
    "station_name":"Bearsted Rail Station",
    "latitude":51.2758186317,
    "longitude":0.5776101903
  },
  {
    "station_name":"Bury St Edmunds Rail Station",
    "latitude":52.2537779145,
    "longitude":0.7133353034
  },
  {
    "station_name":"Bushey Rail Station",
    "latitude":51.6457542219,
    "longitude":-0.3852982939
  },
  {
    "station_name":"Balmossie Rail Station",
    "latitude":56.4745544268,
    "longitude":-2.8389594192
  },
  {
    "station_name":"Bedford St Johns Rail Station",
    "latitude":52.1294885146,
    "longitude":-0.4674793726
  },
  {
    "station_name":"Basingstoke Rail Station",
    "latitude":51.2683550841,
    "longitude":-1.0872452751
  },
  {
    "station_name":"Beasdale Rail Station",
    "latitude":56.8995320852,
    "longitude":-5.7637827088
  },
  {
    "station_name":"Branksome Rail Station",
    "latitude":50.7269511745,
    "longitude":-1.9197490477
  },
  {
    "station_name":"Boston Rail Station",
    "latitude":52.9781123717,
    "longitude":-0.0309954737
  },
  {
    "station_name":"Basildon Rail Station",
    "latitude":51.5681072863,
    "longitude":0.4568185797
  },
  {
    "station_name":"Brondesbury Park Rail Station",
    "latitude":51.5406994758,
    "longitude":-0.2101030164
  },
  {
    "station_name":"Broadstairs Rail Station",
    "latitude":51.3606801474,
    "longitude":1.4335860392
  },
  {
    "station_name":"Barassie Rail Station",
    "latitude":55.5610564283,
    "longitude":-4.6511181093
  },
  {
    "station_name":"Brunstane Rail Station",
    "latitude":55.9425045311,
    "longitude":-3.1009897555
  },
  {
    "station_name":"Buckshaw Parkway Rail Station",
    "latitude":53.6733558277,
    "longitude":-2.6608267264
  },
  {
    "station_name":"Birmingham Snow Hill Rail Station",
    "latitude":52.4833681846,
    "longitude":-1.89908361
  },
  {
    "station_name":"Brondesbury Rail Station",
    "latitude":51.5451661494,
    "longitude":-0.2022838772
  },
  {
    "station_name":"Barnetby Rail Station",
    "latitude":53.5751404569,
    "longitude":-0.4096836565
  },
  {
    "station_name":"Bolton-Upon-Dearne Rail Station",
    "latitude":53.5189640059,
    "longitude":-1.3115478698
  },
  {
    "station_name":"Bitterne Rail Station",
    "latitude":50.9182096759,
    "longitude":-1.3769901266
  },
  {
    "station_name":"Bottesford Rail Station",
    "latitude":52.944634247,
    "longitude":-0.7948377662
  },
  {
    "station_name":"Barnt Green Rail Station",
    "latitude":52.3611012481,
    "longitude":-1.9924584823
  },
  {
    "station_name":"Bath Spa Rail Station",
    "latitude":51.3776813346,
    "longitude":-2.3570165586
  },
  {
    "station_name":"Batley Rail Station",
    "latitude":53.7099546488,
    "longitude":-1.6229560553
  },
  {
    "station_name":"Brighton Rail Station",
    "latitude":50.8289969623,
    "longitude":-0.1412525289
  },
  {
    "station_name":"Betchworth Rail Station",
    "latitude":51.2481856234,
    "longitude":-0.2669489143
  },
  {
    "station_name":"Braintree Freeport Rail Station",
    "latitude":51.86942396,
    "longitude":0.5684631055
  },
  {
    "station_name":"Braintree Rail Station",
    "latitude":51.8753991861,
    "longitude":0.5567148512
  },
  {
    "station_name":"Burntisland Rail Station",
    "latitude":56.0570735491,
    "longitude":-3.233198596
  },
  {
    "station_name":"Battersby Rail Station",
    "latitude":54.4576909817,
    "longitude":-1.092985447
  },
  {
    "station_name":"Bentley (Hants) Rail Station",
    "latitude":51.1812286564,
    "longitude":-0.8681101444
  },
  {
    "station_name":"Burnley Barracks Rail Station",
    "latitude":53.7908906624,
    "longitude":-2.2580864157
  },
  {
    "station_name":"Buckenham Rail Station",
    "latitude":52.5977618232,
    "longitude":1.4703489483
  },
  {
    "station_name":"Burneside (Cumbria) Rail Station",
    "latitude":54.3549872461,
    "longitude":-2.7666793226
  },
  {
    "station_name":"Bures Rail Station",
    "latitude":51.9711715742,
    "longitude":0.7691763467
  },
  {
    "station_name":"Burgess Hill Rail Station",
    "latitude":50.9536493887,
    "longitude":-0.1273860328
  },
  {
    "station_name":"Brough Rail Station",
    "latitude":53.7269790626,
    "longitude":-0.5787296823
  },
  {
    "station_name":"Burnside (Strathclyde) Rail Station",
    "latitude":55.8169207887,
    "longitude":-4.2023757518
  },
  {
    "station_name":"Burton Joyce Rail Station",
    "latitude":52.9834597732,
    "longitude":-1.0408745342
  },
  {
    "station_name":"Bucknell Rail Station",
    "latitude":52.3573903067,
    "longitude":-2.94737686
  },
  {
    "station_name":"Butlers Lane Rail Station",
    "latitude":52.5924838341,
    "longitude":-1.8380133232
  },
  {
    "station_name":"Bursledon Rail Station",
    "latitude":50.8836771224,
    "longitude":-1.3050217804
  },
  {
    "station_name":"Busby Rail Station",
    "latitude":55.7803335966,
    "longitude":-4.2621874207
  },
  {
    "station_name":"Burton-on-Trent Rail Station",
    "latitude":52.805831535,
    "longitude":-1.6424549107
  },
  {
    "station_name":"Burnham-on-Crouch Rail Station",
    "latitude":51.6336616952,
    "longitude":0.8140576821
  },
  {
    "station_name":"Burley-in-Wharfedale Rail Station",
    "latitude":53.9081639278,
    "longitude":-1.7533757307
  },
  {
    "station_name":"Buxton Rail Station",
    "latitude":53.2607356445,
    "longitude":-1.9128621475
  },
  {
    "station_name":"Burley Park Rail Station",
    "latitude":53.8120445498,
    "longitude":-1.5777714582
  },
  {
    "station_name":"Belvedere Rail Station",
    "latitude":51.4921169254,
    "longitude":0.1523141776
  },
  {
    "station_name":"Bow Brickhill Rail Station",
    "latitude":52.0043090172,
    "longitude":-0.6960564274
  },
  {
    "station_name":"Birchwood Rail Station",
    "latitude":53.4127333746,
    "longitude":-2.5253084603
  },
  {
    "station_name":"Bowling Rail Station",
    "latitude":55.9310714655,
    "longitude":-4.4938258606
  },
  {
    "station_name":"Berwick-upon-Tweed Rail Station",
    "latitude":55.774332462,
    "longitude":-2.0109833916
  },
  {
    "station_name":"Bloxwich North Rail Station",
    "latitude":52.6254506167,
    "longitude":-2.0176785833
  },
  {
    "station_name":"Bricket Wood Rail Station",
    "latitude":51.7054311593,
    "longitude":-0.3590920111
  },
  {
    "station_name":"Barrow upon Soar Rail Station",
    "latitude":52.7493534585,
    "longitude":-1.1448359281
  },
  {
    "station_name":"Bridgwater Rail Station",
    "latitude":51.1278501854,
    "longitude":-2.9904134747
  },
  {
    "station_name":"Broxbourne Rail Station",
    "latitude":51.746913795,
    "longitude":-0.0110606305
  },
  {
    "station_name":"Buxted Rail Station",
    "latitude":50.9900076084,
    "longitude":0.1314658692
  },
  {
    "station_name":"Bexleyheath Rail Station",
    "latitude":51.4634986628,
    "longitude":0.1337619475
  },
  {
    "station_name":"Box Hill & Westhumble Rail Station",
    "latitude":51.2540077838,
    "longitude":-0.3284670481
  },
  {
    "station_name":"Bexley Rail Station",
    "latitude":51.4402179279,
    "longitude":0.1479285922
  },
  {
    "station_name":"Berney Arms Rail Station",
    "latitude":52.5898102913,
    "longitude":1.6303988741
  },
  {
    "station_name":"Blythe Bridge Rail Station",
    "latitude":52.9681588029,
    "longitude":-2.0669597492
  },
  {
    "station_name":"Betws-y-Coed Rail Station",
    "latitude":53.0920807045,
    "longitude":-3.8008660334
  },
  {
    "station_name":"Barry Docks Rail Station",
    "latitude":51.4024388396,
    "longitude":-3.2607138987
  },
  {
    "station_name":"Bynea Rail Station",
    "latitude":51.6720355869,
    "longitude":-4.0989020803
  },
  {
    "station_name":"Broughty Ferry Rail Station",
    "latitude":56.467149407,
    "longitude":-2.8731557887
  },
  {
    "station_name":"Barry Island Rail Station",
    "latitude":51.3924107233,
    "longitude":-3.2733735249
  },
  {
    "station_name":"Bentley (S Yorks) Rail Station",
    "latitude":53.5439546043,
    "longitude":-1.1509511595
  },
  {
    "station_name":"Barry Links Rail Station",
    "latitude":56.4931375583,
    "longitude":-2.7454472508
  },
  {
    "station_name":"Burnley Manchester Road Rail Station",
    "latitude":53.7849780535,
    "longitude":-2.2488678001
  },
  {
    "station_name":"Bryn Rail Station",
    "latitude":53.4998801227,
    "longitude":-2.6472139369
  },
  {
    "station_name":"Braystones Rail Station",
    "latitude":54.4393680606,
    "longitude":-3.5418249064
  },
  {
    "station_name":"Coventry Arena Rail Station",
    "latitude":52.4477480204,
    "longitude":-1.4941167693
  },
  {
    "station_name":"Caldercruix Rail Station",
    "latitude":55.887937313,
    "longitude":-3.8877014781
  },
  {
    "station_name":"Cadoxton Rail Station",
    "latitude":51.4122775163,
    "longitude":-3.2489057172
  },
  {
    "station_name":"Carrbridge Rail Station",
    "latitude":57.2794851095,
    "longitude":-3.8282023232
  },
  {
    "station_name":"Cark Rail Station",
    "latitude":54.177962852,
    "longitude":-2.9740635997
  },
  {
    "station_name":"Camberley Rail Station",
    "latitude":51.3363253942,
    "longitude":-0.7442546332
  },
  {
    "station_name":"Carnoustie Rail Station",
    "latitude":56.5005520159,
    "longitude":-2.7066067008
  },
  {
    "station_name":"Cannock Rail Station",
    "latitude":52.6861755085,
    "longitude":-2.0221416067
  },
  {
    "station_name":"Carlisle Rail Station",
    "latitude":54.8906568723,
    "longitude":-2.9331955073
  },
  {
    "station_name":"Castleton (Manchester) Rail Station",
    "latitude":53.5918610828,
    "longitude":-2.1782323207
  },
  {
    "station_name":"Caterham Rail Station",
    "latitude":51.2821380427,
    "longitude":-0.0782806392
  },
  {
    "station_name":"Causeland Rail Station",
    "latitude":50.4056755023,
    "longitude":-4.466483549
  },
  {
    "station_name":"Carntyne Rail Station",
    "latitude":55.8548667252,
    "longitude":-4.178558829
  },
  {
    "station_name":"Carbis Bay Rail Station",
    "latitude":50.1970388168,
    "longitude":-5.4633147211
  },
  {
    "station_name":"Coatbridge Central Rail Station",
    "latitude":55.8624998584,
    "longitude":-4.0318858547
  },
  {
    "station_name":"Conon Bridge Rail Station",
    "latitude":57.5617327905,
    "longitude":-4.4404033769
  },
  {
    "station_name":"Canterbury East Rail Station",
    "latitude":51.2742704504,
    "longitude":1.0759983241
  },
  {
    "station_name":"Cambridge Rail Station",
    "latitude":52.1940786826,
    "longitude":0.1374844883
  },
  {
    "station_name":"Cambridge Heath (London) Rail Station",
    "latitude":51.5319721727,
    "longitude":-0.0572520963
  },
  {
    "station_name":"Cranbrook Rail Station",
    "latitude":50.7500793373,
    "longitude":-3.4204288894
  },
  {
    "station_name":"Cambuslang Rail Station",
    "latitude":55.8196005407,
    "longitude":-4.1729949447
  },
  {
    "station_name":"Camborne Rail Station",
    "latitude":50.210424474,
    "longitude":-5.2974601339
  },
  {
    "station_name":"Castle Bar Park Rail Station",
    "latitude":51.5229296496,
    "longitude":-0.3315265492
  },
  {
    "station_name":"Cooksbridge Rail Station",
    "latitude":50.9037495693,
    "longitude":-0.0091755079
  },
  {
    "station_name":"Coatbridge Sunnyside Rail Station",
    "latitude":55.8668282944,
    "longitude":-4.0282763675
  },
  {
    "station_name":"Canterbury West Rail Station",
    "latitude":51.284271981,
    "longitude":1.0753330452
  },
  {
    "station_name":"Charlbury Rail Station",
    "latitude":51.8724337794,
    "longitude":-1.4896781604
  },
  {
    "station_name":"Criccieth Rail Station",
    "latitude":52.9184246922,
    "longitude":-4.2375196432
  },
  {
    "station_name":"Chichester Rail Station",
    "latitude":50.8320420668,
    "longitude":-0.7817301783
  },
  {
    "station_name":"Cathcart Rail Station",
    "latitude":55.8176625197,
    "longitude":-4.260522045
  },
  {
    "station_name":"Cardiff Bay Rail Station",
    "latitude":51.4671073886,
    "longitude":-3.1664118035
  },
  {
    "station_name":"Cardenden Rail Station",
    "latitude":56.1412469307,
    "longitude":-3.2616419946
  },
  {
    "station_name":"Cardiff Central Rail Station",
    "latitude":51.4760241554,
    "longitude":-3.1793104707
  },
  {
    "station_name":"Crediton Rail Station",
    "latitude":50.7832916037,
    "longitude":-3.6467942575
  },
  {
    "station_name":"Coulsdon Town Rail Station",
    "latitude":51.3220392402,
    "longitude":-0.1344387303
  },
  {
    "station_name":"Cardonald Rail Station",
    "latitude":55.8525617165,
    "longitude":-4.340677662
  },
  {
    "station_name":"Cardiff Queen Street Rail Station",
    "latitude":51.4819604384,
    "longitude":-3.1701891748
  },
  {
    "station_name":"Cardross Rail Station",
    "latitude":55.9603705466,
    "longitude":-4.6530550015
  },
  {
    "station_name":"Coulsdon South Rail Station",
    "latitude":51.3158346141,
    "longitude":-0.1378616075
  },
  {
    "station_name":"Caldicot Rail Station",
    "latitude":51.5847886548,
    "longitude":-2.7605785503
  },
  {
    "station_name":"Cam & Dursley Rail Station",
    "latitude":51.7176208933,
    "longitude":-2.3590816591
  },
  {
    "station_name":"Cartsdyke Rail Station",
    "latitude":55.9422051727,
    "longitude":-4.7315711125
  },
  {
    "station_name":"Cleland Rail Station",
    "latitude":55.8046428518,
    "longitude":-3.9102338035
  },
  {
    "station_name":"Cheddington Rail Station",
    "latitude":51.8579248983,
    "longitude":-0.6621263072
  },
  {
    "station_name":"Chapel-en-le-Frith Rail Station",
    "latitude":53.3122450065,
    "longitude":-1.9187614767
  },
  {
    "station_name":"Coleshill Parkway Rail Station",
    "latitude":52.5165405856,
    "longitude":-1.7081695542
  },
  {
    "station_name":"Chelford Rail Station",
    "latitude":53.270324898,
    "longitude":-2.2805759167
  },
  {
    "station_name":"Cressing Rail Station",
    "latitude":51.8523442178,
    "longitude":0.5779891355
  },
  {
    "station_name":"Colchester Town Rail Station",
    "latitude":51.8864651647,
    "longitude":0.904792312
  },
  {
    "station_name":"Cononley Rail Station",
    "latitude":53.917582567,
    "longitude":-2.012071028
  },
  {
    "station_name":"Catford Bridge Rail Station",
    "latitude":51.4447386824,
    "longitude":-0.0247654501
  },
  {
    "station_name":"Castleford Rail Station",
    "latitude":53.7240933891,
    "longitude":-1.3546560801
  },
  {
    "station_name":"Croftfoot Rail Station",
    "latitude":55.818250801,
    "longitude":-4.2283107571
  },
  {
    "station_name":"Chafford Hundred Rail Station",
    "latitude":51.4855557794,
    "longitude":0.2874752389
  },
  {
    "station_name":"Crossflatts Rail Station",
    "latitude":53.8584785,
    "longitude":-1.8448891769
  },
  {
    "station_name":"Clifton Down Rail Station",
    "latitude":51.4645414825,
    "longitude":-2.6117434096
  },
  {
    "station_name":"Chalfont & Latimer Rail Station",
    "latitude":51.6681107756,
    "longitude":-0.5605042796
  },
  {
    "station_name":"Chandlers Ford Rail Station",
    "latitude":50.9836745047,
    "longitude":-1.3851600502
  },
  {
    "station_name":"Crofton Park Rail Station",
    "latitude":51.45518736,
    "longitude":-0.036477467
  },
  {
    "station_name":"Craigendoran Rail Station",
    "latitude":55.9947875724,
    "longitude":-4.7112248712
  },
  {
    "station_name":"Cottingham Rail Station",
    "latitude":53.7816677653,
    "longitude":-0.4064399418
  },
  {
    "station_name":"Cogan Rail Station",
    "latitude":51.4459907902,
    "longitude":-3.189098989
  },
  {
    "station_name":"Caergwrle Rail Station",
    "latitude":53.1078775755,
    "longitude":-3.0329132338
  },
  {
    "station_name":"Charing Cross (Glasgow) Rail Station",
    "latitude":55.8646752269,
    "longitude":-4.2698055885
  },
  {
    "station_name":"Chesterfield Rail Station",
    "latitude":53.2382369384,
    "longitude":-1.4201139064
  },
  {
    "station_name":"Cheam Rail Station",
    "latitude":51.3554760901,
    "longitude":-0.2141426137
  },
  {
    "station_name":"Church Fenton Rail Station",
    "latitude":53.826617281,
    "longitude":-1.227593241
  },
  {
    "station_name":"Charing (Kent) Rail Station",
    "latitude":51.2080968918,
    "longitude":0.790361474
  },
  {
    "station_name":"Christs Hospital Rail Station",
    "latitude":51.0506799602,
    "longitude":-0.3635305612
  },
  {
    "station_name":"Chingford Rail Station",
    "latitude":51.6330861875,
    "longitude":0.0099231874
  },
  {
    "station_name":"Chiswick Rail Station",
    "latitude":51.4811352623,
    "longitude":-0.2678126102
  },
  {
    "station_name":"Chilworth Rail Station",
    "latitude":51.2152082426,
    "longitude":-0.5248019553
  },
  {
    "station_name":"Chelmsford Rail Station",
    "latitude":51.736377313,
    "longitude":0.4685976033
  },
  {
    "station_name":"Cheshunt Rail Station",
    "latitude":51.7028782333,
    "longitude":-0.0239334005
  },
  {
    "station_name":"Cholsey Rail Station",
    "latitude":51.5702030857,
    "longitude":-1.1580033162
  },
  {
    "station_name":"Chipstead Rail Station",
    "latitude":51.3092732695,
    "longitude":-0.1694772828
  },
  {
    "station_name":"Christchurch Rail Station",
    "latitude":50.7382022761,
    "longitude":-1.7845391826
  },
  {
    "station_name":"Chathill Rail Station",
    "latitude":55.5367311282,
    "longitude":-1.7063916064
  },
  {
    "station_name":"Cheadle Hulme Rail Station",
    "latitude":53.3759438577,
    "longitude":-2.1883016906
  },
  {
    "station_name":"Chalkwell Rail Station",
    "latitude":51.5387210852,
    "longitude":0.6706212378
  },
  {
    "station_name":"London Charing Cross Rail Station",
    "latitude":51.5080271291,
    "longitude":-0.124776951
  },
  {
    "station_name":"Chertsey Rail Station",
    "latitude":51.3870662195,
    "longitude":-0.5092980361
  },
  {
    "station_name":"Chilham Rail Station",
    "latitude":51.244611699,
    "longitude":0.9759253356
  },
  {
    "station_name":"Cilmeri Rail Station",
    "latitude":52.1505372986,
    "longitude":-3.456549557
  },
  {
    "station_name":"Caledonian Road & Barnsbury Rail Station",
    "latitude":51.5430414168,
    "longitude":-0.1167032568
  },
  {
    "station_name":"Chislehurst Rail Station",
    "latitude":51.4055548954,
    "longitude":0.0574432034
  },
  {
    "station_name":"Corkerhill Rail Station",
    "latitude":55.8374943521,
    "longitude":-4.3342780321
  },
  {
    "station_name":"Corkickle Rail Station",
    "latitude":54.5416855173,
    "longitude":-3.5821649914
  },
  {
    "station_name":"Crewkerne Rail Station",
    "latitude":50.8735260536,
    "longitude":-2.7784973275
  },
  {
    "station_name":"Clarkston Rail Station",
    "latitude":55.7893425756,
    "longitude":-4.2756304312
  },
  {
    "station_name":"Crookston Rail Station",
    "latitude":55.842306531,
    "longitude":-4.3646599927
  },
  {
    "station_name":"Crosskeys Rail Station",
    "latitude":51.6209031401,
    "longitude":-3.1261795275
  },
  {
    "station_name":"Clandon Rail Station",
    "latitude":51.2640008411,
    "longitude":-0.5027439883
  },
  {
    "station_name":"Castle Cary Rail Station",
    "latitude":51.0998071422,
    "longitude":-2.5227962269
  },
  {
    "station_name":"Chelsfield Rail Station",
    "latitude":51.3562553945,
    "longitude":0.109096599
  },
  {
    "station_name":"Cleethorpes Rail Station",
    "latitude":53.5619299115,
    "longitude":-0.0292269788
  },
  {
    "station_name":"Claygate Rail Station",
    "latitude":51.3612107148,
    "longitude":-0.3482245539
  },
  {
    "station_name":"Clitheroe Rail Station",
    "latitude":53.8734784154,
    "longitude":-2.3943371754
  },
  {
    "station_name":"Clifton (Manchester) Rail Station",
    "latitude":53.5225049162,
    "longitude":-2.3147448248
  },
  {
    "station_name":"Clapham Junction Rail Station",
    "latitude":51.4641869937,
    "longitude":-0.1702686508
  },
  {
    "station_name":"Clock House Rail Station",
    "latitude":51.4085837591,
    "longitude":-0.0406309221
  },
  {
    "station_name":"Collington Rail Station",
    "latitude":50.8392826491,
    "longitude":0.4578912206
  },
  {
    "station_name":"Collingham Rail Station",
    "latitude":53.1441054305,
    "longitude":-0.7503911592
  },
  {
    "station_name":"Chapeltown Rail Station",
    "latitude":53.46235275,
    "longitude":-1.4662753767
  },
  {
    "station_name":"Clapham High Street Rail Station",
    "latitude":51.4654799498,
    "longitude":-0.1324962988
  },
  {
    "station_name":"Clarbeston Road Rail Station",
    "latitude":51.8516764519,
    "longitude":-4.883577935
  },
  {
    "station_name":"Chester-le-Street Rail Station",
    "latitude":54.8546014236,
    "longitude":-1.5780279033
  },
  {
    "station_name":"Clacton-on-Sea Rail Station",
    "latitude":51.7940121532,
    "longitude":1.1541237294
  },
  {
    "station_name":"Carluke Rail Station",
    "latitude":55.7312612023,
    "longitude":-3.8489142324
  },
  {
    "station_name":"Claverdon Rail Station",
    "latitude":52.2771032987,
    "longitude":-1.696549552
  },
  {
    "station_name":"Chorleywood Rail Station",
    "latitude":51.6542505776,
    "longitude":-0.5182984244
  },
  {
    "station_name":"Chinley Rail Station",
    "latitude":53.3403042037,
    "longitude":-1.9439397765
  },
  {
    "station_name":"Cambridge North Rail Station",
    "latitude":52.2244936969,
    "longitude":0.158507305
  },
  {
    "station_name":"Camden Road Rail Station",
    "latitude":51.5417913143,
    "longitude":-0.1386752331
  },
  {
    "station_name":"Combe (Oxon) Rail Station",
    "latitude":51.8325979785,
    "longitude":-1.3940563489
  },
  {
    "station_name":"Cromford Rail Station",
    "latitude":53.1129487944,
    "longitude":-1.5491593967
  },
  {
    "station_name":"Cwmbach Rail Station",
    "latitude":51.7019306049,
    "longitude":-3.4137347518
  },
  {
    "station_name":"Carmyle Rail Station",
    "latitude":55.8343311624,
    "longitude":-4.1581669693
  },
  {
    "station_name":"Carmarthen Rail Station",
    "latitude":51.8533597764,
    "longitude":-4.3059837569
  },
  {
    "station_name":"Camelon Rail Station",
    "latitude":56.0060850872,
    "longitude":-3.8175985504
  },
  {
    "station_name":"Cromer Rail Station",
    "latitude":52.9301115682,
    "longitude":1.2928430662
  },
  {
    "station_name":"Crossmyloof Rail Station",
    "latitude":55.8339394759,
    "longitude":-4.2843030651
  },
  {
    "station_name":"Colne Rail Station",
    "latitude":53.854755007,
    "longitude":-2.1818613773
  },
  {
    "station_name":"Carnforth Rail Station",
    "latitude":54.1296866595,
    "longitude":-2.7712312791
  },
  {
    "station_name":"Congleton Rail Station",
    "latitude":53.1578702503,
    "longitude":-2.1925793889
  },
  {
    "station_name":"Canley Rail Station",
    "latitude":52.3992554076,
    "longitude":-1.5475652767
  },
  {
    "station_name":"Cheltenham Spa Rail Station",
    "latitude":51.8974028753,
    "longitude":-2.0996135055
  },
  {
    "station_name":"Canonbury Rail Station",
    "latitude":51.5487325338,
    "longitude":-0.09216443
  },
  {
    "station_name":"Chetnole Rail Station",
    "latitude":50.8663529505,
    "longitude":-2.5729267275
  },
  {
    "station_name":"Conway Park Rail Station",
    "latitude":53.3933739019,
    "longitude":-3.0226705989
  },
  {
    "station_name":"Crianlarich Rail Station",
    "latitude":56.3904637247,
    "longitude":-4.6184189492
  },
  {
    "station_name":"Conisbrough Rail Station",
    "latitude":53.4893269216,
    "longitude":-1.2343330775
  },
  {
    "station_name":"Conwy Rail Station",
    "latitude":53.2801164248,
    "longitude":-3.8305284521
  },
  {
    "station_name":"Cantley Rail Station",
    "latitude":52.5787715007,
    "longitude":1.5134359903
  },
  {
    "station_name":"Coatdyke Rail Station",
    "latitude":55.8643346399,
    "longitude":-4.0049736959
  },
  {
    "station_name":"Cooden Beach Rail Station",
    "latitude":50.8333660029,
    "longitude":0.4268882942
  },
  {
    "station_name":"Coombe Junction Halt (Rail Station)",
    "latitude":50.4459059035,
    "longitude":-4.4818867991
  },
  {
    "station_name":"Crowborough Rail Station",
    "latitude":51.0463770048,
    "longitude":0.1880407337
  },
  {
    "station_name":"Crosshill Rail Station",
    "latitude":55.8332791971,
    "longitude":-4.2567970862
  },
  {
    "station_name":"Colchester Rail Station",
    "latitude":51.9007230246,
    "longitude":0.8926284517
  },
  {
    "station_name":"Commondale Rail Station",
    "latitude":54.4812856119,
    "longitude":-0.9751641461
  },
  {
    "station_name":"Connel Ferry Rail Station",
    "latitude":56.45233723,
    "longitude":-5.3854201352
  },
  {
    "station_name":"Cookham Rail Station",
    "latitude":51.5574642725,
    "longitude":-0.7220603119
  },
  {
    "station_name":"Copplestone Rail Station",
    "latitude":50.8144563375,
    "longitude":-3.751590555
  },
  {
    "station_name":"Corby Rail Station",
    "latitude":52.4888659511,
    "longitude":-0.6883213327
  },
  {
    "station_name":"Cosford Rail Station",
    "latitude":52.6448470661,
    "longitude":-2.3002712165
  },
  {
    "station_name":"Cottingley Rail Station",
    "latitude":53.7678308023,
    "longitude":-1.5877119373
  },
  {
    "station_name":"Coventry Rail Station",
    "latitude":52.4008284145,
    "longitude":-1.5134504816
  },
  {
    "station_name":"Cowdenbeath Rail Station",
    "latitude":56.112083991,
    "longitude":-3.3431844925
  },
  {
    "station_name":"Coryton Rail Station",
    "latitude":51.5204358321,
    "longitude":-3.2318279619
  },
  {
    "station_name":"Corpach Rail Station",
    "latitude":56.8428086004,
    "longitude":-5.121943037
  },
  {
    "station_name":"Caerphilly Rail Station",
    "latitude":51.5715771276,
    "longitude":-3.2184921838
  },
  {
    "station_name":"Carpenders Park Rail Station",
    "latitude":51.6283534546,
    "longitude":-0.3859168008
  },
  {
    "station_name":"Chippenham Rail Station",
    "latitude":51.4624852566,
    "longitude":-2.1153890334
  },
  {
    "station_name":"Chapelton (Devon) Rail Station",
    "latitude":51.0165289386,
    "longitude":-4.0247448242
  },
  {
    "station_name":"Clapton Rail Station",
    "latitude":51.5616436677,
    "longitude":-0.0569984893
  },
  {
    "station_name":"Capenhurst Rail Station",
    "latitude":53.2601877687,
    "longitude":-2.9422844784
  },
  {
    "station_name":"Chepstow Rail Station",
    "latitude":51.6401793133,
    "longitude":-2.6719110922
  },
  {
    "station_name":"Clapham (N Yorks) Rail Station",
    "latitude":54.1053962118,
    "longitude":-2.4103793434
  },
  {
    "station_name":"Cradley Heath Rail Station",
    "latitude":52.4696668258,
    "longitude":-2.0904823836
  },
  {
    "station_name":"Corbridge Rail Station",
    "latitude":54.9662659971,
    "longitude":-2.0184091796
  },
  {
    "station_name":"Chester Road Rail Station",
    "latitude":52.5356593313,
    "longitude":-1.832472162
  },
  {
    "station_name":"Crewe Rail Station",
    "latitude":53.089639576,
    "longitude":-2.4329694874
  },
  {
    "station_name":"Carfin Rail Station",
    "latitude":55.8073342674,
    "longitude":-3.9562432142
  },
  {
    "station_name":"Cross Gates Rail Station",
    "latitude":53.8049283962,
    "longitude":-1.4515849362
  },
  {
    "station_name":"Crouch Hill Rail Station",
    "latitude":51.5713028362,
    "longitude":-0.11712295
  },
  {
    "station_name":"Cricklewood Rail Station",
    "latitude":51.5584538453,
    "longitude":-0.212652067
  },
  {
    "station_name":"Chirk Rail Station",
    "latitude":52.9330999763,
    "longitude":-3.0656421264
  },
  {
    "station_name":"Chorley Rail Station",
    "latitude":53.6525509696,
    "longitude":-2.6268378803
  },
  {
    "station_name":"Cramlington Rail Station",
    "latitude":55.0877729503,
    "longitude":-1.5986098387
  },
  {
    "station_name":"Crowthorne Rail Station",
    "latitude":51.3667259688,
    "longitude":-0.8192566155
  },
  {
    "station_name":"Croy Rail Station",
    "latitude":55.9556707554,
    "longitude":-4.0359670002
  },
  {
    "station_name":"Corrour Rail Station",
    "latitude":56.7601959475,
    "longitude":-4.6905898827
  },
  {
    "station_name":"Carstairs Rail Station",
    "latitude":55.6910435615,
    "longitude":-3.6684653164
  },
  {
    "station_name":"Chartham Rail Station",
    "latitude":51.2572676132,
    "longitude":1.0180692196
  },
  {
    "station_name":"Craven Arms Rail Station",
    "latitude":52.4425511842,
    "longitude":-2.8374211059
  },
  {
    "station_name":"Crawley Rail Station",
    "latitude":51.1122079127,
    "longitude":-0.1866457301
  },
  {
    "station_name":"Crayford Rail Station",
    "latitude":51.4482784318,
    "longitude":0.1789624549
  },
  {
    "station_name":"Cosham Rail Station",
    "latitude":50.8419131216,
    "longitude":-1.0673147963
  },
  {
    "station_name":"Carshalton Beeches Rail Station",
    "latitude":51.3574078701,
    "longitude":-0.1697719787
  },
  {
    "station_name":"Cobham & Stoke d'Abernon Rail Station",
    "latitude":51.3180974283,
    "longitude":-0.389323466
  },
  {
    "station_name":"Cressington Rail Station",
    "latitude":53.3587637655,
    "longitude":-2.9120028641
  },
  {
    "station_name":"Carshalton Rail Station",
    "latitude":51.368451556,
    "longitude":-0.166343454
  },
  {
    "station_name":"Calstock Rail Station",
    "latitude":50.497783854,
    "longitude":-4.2090174117
  },
  {
    "station_name":"Codsall Rail Station",
    "latitude":52.6273016994,
    "longitude":-2.2017584348
  },
  {
    "station_name":"Castleton Moor Rail Station",
    "latitude":54.4671552873,
    "longitude":-0.9466648318
  },
  {
    "station_name":"Chessington North Rail Station",
    "latitude":51.3640376909,
    "longitude":-0.3006757682
  },
  {
    "station_name":"Croston Rail Station",
    "latitude":53.6675742668,
    "longitude":-2.7777477556
  },
  {
    "station_name":"Chassen Road Rail Station",
    "latitude":53.4461736991,
    "longitude":-2.3682321593
  },
  {
    "station_name":"Chessington South Rail Station",
    "latitude":51.3565467942,
    "longitude":-0.3081340168
  },
  {
    "station_name":"London Cannon Street Rail Station",
    "latitude":51.5113821708,
    "longitude":-0.0902671514
  },
  {
    "station_name":"Chestfield & Swalecliffe Rail Station",
    "latitude":51.3602434955,
    "longitude":1.0669610537
  },
  {
    "station_name":"Coseley Rail Station",
    "latitude":52.545096174,
    "longitude":-2.0857720388
  },
  {
    "station_name":"Chatelherault Rail Station",
    "latitude":55.7652139884,
    "longitude":-4.004665396
  },
  {
    "station_name":"Catford Rail Station",
    "latitude":51.4444046468,
    "longitude":-0.0262908765
  },
  {
    "station_name":"Chadwell Heath Rail Station",
    "latitude":51.5680380571,
    "longitude":0.1289849608
  },
  {
    "station_name":"City Thameslink Rail Station",
    "latitude":51.5139360643,
    "longitude":-0.1035639706
  },
  {
    "station_name":"Cattal Rail Station",
    "latitude":53.997454781,
    "longitude":-1.3205413788
  },
  {
    "station_name":"Chatham Rail Station",
    "latitude":51.3803760302,
    "longitude":0.5211794412
  },
  {
    "station_name":"Charlton Rail Station",
    "latitude":51.4868121438,
    "longitude":0.0312832554
  },
  {
    "station_name":"Carlton Rail Station",
    "latitude":52.9651058655,
    "longitude":-1.0786513766
  },
  {
    "station_name":"Chester Rail Station",
    "latitude":53.1967089901,
    "longitude":-2.8795954639
  },
  {
    "station_name":"Church Stretton Rail Station",
    "latitude":52.5374347501,
    "longitude":-2.8036939757
  },
  {
    "station_name":"Church & Oswaldtwistle Rail Station",
    "latitude":53.7505339398,
    "longitude":-2.3912114012
  },
  {
    "station_name":"Culrain Rail Station",
    "latitude":57.9194946106,
    "longitude":-4.4042721672
  },
  {
    "station_name":"Cumbernauld Rail Station",
    "latitude":55.942019023,
    "longitude":-3.9803257587
  },
  {
    "station_name":"Cuddington Rail Station",
    "latitude":53.2399328038,
    "longitude":-2.5993047996
  },
  {
    "station_name":"Cuffley Rail Station",
    "latitude":51.708723054,
    "longitude":-0.1097585788
  },
  {
    "station_name":"Curriehill Rail Station",
    "latitude":55.9005593257,
    "longitude":-3.3187497327
  },
  {
    "station_name":"Culham Rail Station",
    "latitude":51.653795137,
    "longitude":-1.2364953245
  },
  {
    "station_name":"Cupar Rail Station",
    "latitude":56.3169774524,
    "longitude":-3.0087585168
  },
  {
    "station_name":"Clunderwen Rail Station",
    "latitude":51.8405496199,
    "longitude":-4.731870145
  },
  {
    "station_name":"Cuxton Rail Station",
    "latitude":51.3739247395,
    "longitude":0.4617373125
  },
  {
    "station_name":"Colwyn Bay Rail Station",
    "latitude":53.2963736339,
    "longitude":-3.7254203797
  },
  {
    "station_name":"Chappel & Wakes Colne Rail Station",
    "latitude":51.9259156453,
    "longitude":0.7585305397
  },
  {
    "station_name":"Creswell (Derbys) Rail Station",
    "latitude":53.2641317653,
    "longitude":-1.2163932459
  },
  {
    "station_name":"Crowle Rail Station",
    "latitude":53.589752526,
    "longitude":-0.8173624763
  },
  {
    "station_name":"Crews Hill Rail Station",
    "latitude":51.6844869604,
    "longitude":-0.1068615213
  },
  {
    "station_name":"Colwall Rail Station",
    "latitude":52.0798767311,
    "longitude":-2.3569466545
  },
  {
    "station_name":"Cwmbran Rail Station",
    "latitude":51.6565871606,
    "longitude":-3.01621063
  },
  {
    "station_name":"Cowden Rail Station",
    "latitude":51.1556324991,
    "longitude":0.1100591285
  },
  {
    "station_name":"Caersws Rail Station",
    "latitude":52.5161370252,
    "longitude":-3.4325032748
  },
  {
    "station_name":"Crowhurst Rail Station",
    "latitude":50.8885735262,
    "longitude":0.5013656464
  },
  {
    "station_name":"Cefn-y-Bedd Rail Station",
    "latitude":53.0988144368,
    "longitude":-3.0310532391
  },
  {
    "station_name":"Clydebank Rail Station",
    "latitude":55.9006838001,
    "longitude":-4.4043987103
  },
  {
    "station_name":"Cynghordy Rail Station",
    "latitude":52.0515055365,
    "longitude":-3.7482227844
  },
  {
    "station_name":"Crystal Palace Rail Station",
    "latitude":51.4181067019,
    "longitude":-0.0725839873
  },
  {
    "station_name":"Cathays Rail Station",
    "latitude":51.4888980023,
    "longitude":-3.178691896
  },
  {
    "station_name":"Cherry Tree Rail Station",
    "latitude":53.7328842568,
    "longitude":-2.5183765976
  },
  {
    "station_name":"Dalgety Bay Rail Station",
    "latitude":56.0420879876,
    "longitude":-3.367719234
  },
  {
    "station_name":"Dalmarnock Rail Station",
    "latitude":55.8420793253,
    "longitude":-4.2176948019
  },
  {
    "station_name":"Dalmally Rail Station",
    "latitude":56.40117566,
    "longitude":-4.9835317937
  },
  {
    "station_name":"Dalmeny Rail Station",
    "latitude":55.9863117819,
    "longitude":-3.381617481
  },
  {
    "station_name":"Darnall Rail Station",
    "latitude":53.3846003446,
    "longitude":-1.4125666166
  },
  {
    "station_name":"Darlington Rail Station",
    "latitude":54.5204574957,
    "longitude":-1.5473329223
  },
  {
    "station_name":"Datchet Rail Station",
    "latitude":51.4830766846,
    "longitude":-0.5794049222
  },
  {
    "station_name":"Dumbarton Central Rail Station",
    "latitude":55.9466469118,
    "longitude":-4.5669032007
  },
  {
    "station_name":"Denby Dale Rail Station",
    "latitude":53.5726454936,
    "longitude":-1.6632128419
  },
  {
    "station_name":"Dumbarton East Rail Station",
    "latitude":55.9422389396,
    "longitude":-4.5541195047
  },
  {
    "station_name":"Mottisfont & Dunbridge Rail Station",
    "latitude":51.0339180849,
    "longitude":-1.5470733978
  },
  {
    "station_name":"Dunblane Rail Station",
    "latitude":56.1858813154,
    "longitude":-3.9654784274
  },
  {
    "station_name":"Derby Road (Ipswich) Rail Station",
    "latitude":52.0505675726,
    "longitude":1.182673697
  },
  {
    "station_name":"Derby Rail Station",
    "latitude":52.9165645679,
    "longitude":-1.4633507475
  },
  {
    "station_name":"Duncraig Rail Station",
    "latitude":57.3369773237,
    "longitude":-5.6371200748
  },
  {
    "station_name":"Dorchester South Rail Station",
    "latitude":50.7092808049,
    "longitude":-2.43724064
  },
  {
    "station_name":"Danescourt Rail Station",
    "latitude":51.5005053214,
    "longitude":-3.2339264723
  },
  {
    "station_name":"Dorchester West Rail Station",
    "latitude":50.7109424746,
    "longitude":-2.4425389873
  },
  {
    "station_name":"Dorridge Rail Station",
    "latitude":52.3720819757,
    "longitude":-1.7528919248
  },
  {
    "station_name":"Dagenham Dock Rail Station",
    "latitude":51.5260887461,
    "longitude":0.1461308631
  },
  {
    "station_name":"Dudley Port Rail Station",
    "latitude":52.5246649483,
    "longitude":-2.0494739583
  },
  {
    "station_name":"Deal Rail Station",
    "latitude":51.2230510827,
    "longitude":1.3988758198
  },
  {
    "station_name":"Dundee Rail Station",
    "latitude":56.4564750929,
    "longitude":-2.9712080372
  },
  {
    "station_name":"Dean Rail Station",
    "latitude":51.0424533409,
    "longitude":-1.6348555051
  },
  {
    "station_name":"Deptford Rail Station",
    "latitude":51.4788466717,
    "longitude":-0.0262441885
  },
  {
    "station_name":"Dewsbury Rail Station",
    "latitude":53.6921445094,
    "longitude":-1.6331100451
  },
  {
    "station_name":"Dartford Rail Station",
    "latitude":51.4473695898,
    "longitude":0.2192754223
  },
  {
    "station_name":"Dunfermline Town Rail Station",
    "latitude":56.0681835684,
    "longitude":-3.4525246789
  },
  {
    "station_name":"Duffield Rail Station",
    "latitude":52.9884176714,
    "longitude":-1.4859685231
  },
  {
    "station_name":"Dunfermline Queen Margaret Rail Station",
    "latitude":56.0805680436,
    "longitude":-3.4214651879
  },
  {
    "station_name":"Drumfrochar Rail Station",
    "latitude":55.9412399388,
    "longitude":-4.7747462431
  },
  {
    "station_name":"Denham Golf Club Rail Station",
    "latitude":51.5805981628,
    "longitude":-0.5177663959
  },
  {
    "station_name":"Dingle Road Rail Station",
    "latitude":51.4400518803,
    "longitude":-3.1805995641
  },
  {
    "station_name":"Deansgate Rail Station",
    "latitude":53.4741986483,
    "longitude":-2.251049342
  },
  {
    "station_name":"Deganwy Rail Station",
    "latitude":53.2947621319,
    "longitude":-3.8333901264
  },
  {
    "station_name":"Durham Rail Station",
    "latitude":54.7793980708,
    "longitude":-1.5817625077
  },
  {
    "station_name":"Deighton Rail Station",
    "latitude":53.6684962139,
    "longitude":-1.7518983268
  },
  {
    "station_name":"Didcot Parkway Rail Station",
    "latitude":51.6109553482,
    "longitude":-1.2428749913
  },
  {
    "station_name":"Digby & Sowton Rail Station",
    "latitude":50.7139764327,
    "longitude":-3.4735740965
  },
  {
    "station_name":"Dingwall Rail Station",
    "latitude":57.5942168221,
    "longitude":-4.4221973842
  },
  {
    "station_name":"Diss Rail Station",
    "latitude":52.3736757898,
    "longitude":1.1237252182
  },
  {
    "station_name":"Dunkeld & Birnam Rail Station",
    "latitude":56.5570452529,
    "longitude":-3.5783964404
  },
  {
    "station_name":"Dorking Rail Station",
    "latitude":51.2409257562,
    "longitude":-0.3242277761
  },
  {
    "station_name":"Dorking West Rail Station",
    "latitude":51.2362217787,
    "longitude":-0.3399557367
  },
  {
    "station_name":"Dolgarrog Rail Station",
    "latitude":53.1863628038,
    "longitude":-3.8226405143
  },
  {
    "station_name":"Doleham Rail Station",
    "latitude":50.9185826306,
    "longitude":0.6100042375
  },
  {
    "station_name":"Dalston Junction Rail Station",
    "latitude":51.5461154595,
    "longitude":-0.0751109378
  },
  {
    "station_name":"Dalston Kingsland Rail Station",
    "latitude":51.5481480385,
    "longitude":-0.0756742388
  },
  {
    "station_name":"Delamere Rail Station",
    "latitude":53.2287882936,
    "longitude":-2.6665587536
  },
  {
    "station_name":"Dalreoch Rail Station",
    "latitude":55.9474070119,
    "longitude":-4.5778455124
  },
  {
    "station_name":"Dalston (Cumbria) Rail Station",
    "latitude":54.8461812399,
    "longitude":-2.9888562179
  },
  {
    "station_name":"Dalton Rail Station",
    "latitude":54.1542436887,
    "longitude":-3.1790013184
  },
  {
    "station_name":"Dalwhinnie Rail Station",
    "latitude":56.9351543012,
    "longitude":-4.2461914619
  },
  {
    "station_name":"Dalry Rail Station",
    "latitude":55.7062150527,
    "longitude":-4.7110594286
  },
  {
    "station_name":"Drumchapel Rail Station",
    "latitude":55.9048050133,
    "longitude":-4.3628637433
  },
  {
    "station_name":"Dumfries Rail Station",
    "latitude":55.072559544,
    "longitude":-3.604300351
  },
  {
    "station_name":"Dinas (Rhondda) Rail Station",
    "latitude":51.6178352115,
    "longitude":-3.437552058
  },
  {
    "station_name":"Dilton Marsh Rail Station",
    "latitude":51.2489808553,
    "longitude":-2.2079111292
  },
  {
    "station_name":"Denmark Hill Rail Station",
    "latitude":51.4682016412,
    "longitude":-0.0893351949
  },
  {
    "station_name":"Dumpton Park Rail Station",
    "latitude":51.3457052089,
    "longitude":1.4258444805
  },
  {
    "station_name":"Dalmuir Rail Station",
    "latitude":55.911921651,
    "longitude":-4.4266657755
  },
  {
    "station_name":"Dormans Rail Station",
    "latitude":51.1557866779,
    "longitude":-0.0042811467
  },
  {
    "station_name":"Drumry Rail Station",
    "latitude":55.9045847687,
    "longitude":-4.3854571409
  },
  {
    "station_name":"Dinsdale Rail Station",
    "latitude":54.5147386026,
    "longitude":-1.4670752041
  },
  {
    "station_name":"Dunton Green Rail Station",
    "latitude":51.2964873167,
    "longitude":0.1709649125
  },
  {
    "station_name":"Dunlop Rail Station",
    "latitude":55.7118747945,
    "longitude":-4.5323721773
  },
  {
    "station_name":"Denham Rail Station",
    "latitude":51.5788378122,
    "longitude":-0.4974160111
  },
  {
    "station_name":"Dunrobin Castle Rail Station",
    "latitude":57.9855164027,
    "longitude":-3.9489241071
  },
  {
    "station_name":"Dinas Powys Rail Station",
    "latitude":51.4316627486,
    "longitude":-3.2183612689
  },
  {
    "station_name":"Dent Rail Station",
    "latitude":54.2824184109,
    "longitude":-2.3636026167
  },
  {
    "station_name":"Danby Rail Station",
    "latitude":54.4661651822,
    "longitude":-0.9109721492
  },
  {
    "station_name":"Dockyard (Plymouth) Rail Station",
    "latitude":50.3821534706,
    "longitude":-4.1759268375
  },
  {
    "station_name":"Dodworth Rail Station",
    "latitude":53.5443407648,
    "longitude":-1.5316921206
  },
  {
    "station_name":"Dolau Rail Station",
    "latitude":52.2953601526,
    "longitude":-3.2636234021
  },
  {
    "station_name":"Doncaster Rail Station",
    "latitude":53.522167905,
    "longitude":-1.1398476982
  },
  {
    "station_name":"Dore & Totley Rail Station",
    "latitude":53.3276504838,
    "longitude":-1.5152967348
  },
  {
    "station_name":"Dunston Rail Station",
    "latitude":54.9500607179,
    "longitude":-1.6420561513
  },
  {
    "station_name":"Downham Market Rail Station",
    "latitude":52.6041264601,
    "longitude":0.3656997898
  },
  {
    "station_name":"Dorking Deepdene Rail Station",
    "latitude":51.2388000949,
    "longitude":-0.3246201844
  },
  {
    "station_name":"Devonport Rail Station",
    "latitude":50.3785177656,
    "longitude":-4.1707389477
  },
  {
    "station_name":"Driffield Rail Station",
    "latitude":54.001546492,
    "longitude":-0.4346760339
  },
  {
    "station_name":"Drayton Green Rail Station",
    "latitude":51.5166156836,
    "longitude":-0.3301719985
  },
  {
    "station_name":"Drigg Rail Station",
    "latitude":54.3769668358,
    "longitude":-3.443413857
  },
  {
    "station_name":"Drem Rail Station",
    "latitude":56.0051170654,
    "longitude":-2.7860534175
  },
  {
    "station_name":"Duirinish Rail Station",
    "latitude":57.319951049,
    "longitude":-5.6913048804
  },
  {
    "station_name":"Dronfield Rail Station",
    "latitude":53.3013854109,
    "longitude":-1.4687777286
  },
  {
    "station_name":"Darton Rail Station",
    "latitude":53.5883833705,
    "longitude":-1.5316604623
  },
  {
    "station_name":"Drumgelloch Rail Station",
    "latitude":55.8673480624,
    "longitude":-3.9488717169
  },
  {
    "station_name":"Disley Rail Station",
    "latitude":53.3581971647,
    "longitude":-2.0424809658
  },
  {
    "station_name":"Darsham Rail Station",
    "latitude":52.2730184572,
    "longitude":1.5235008921
  },
  {
    "station_name":"Duke Street Rail Station",
    "latitude":55.8584302018,
    "longitude":-4.213033844
  },
  {
    "station_name":"Daisy Hill Rail Station",
    "latitude":53.5394676714,
    "longitude":-2.5158611336
  },
  {
    "station_name":"Dinting Rail Station",
    "latitude":53.4493453873,
    "longitude":-1.9702958822
  },
  {
    "station_name":"Denton Rail Station",
    "latitude":53.456880489,
    "longitude":-2.1316584707
  },
  {
    "station_name":"Droitwich Spa Rail Station",
    "latitude":52.2682155287,
    "longitude":-2.1583562459
  },
  {
    "station_name":"Duddeston Rail Station",
    "latitude":52.4883756068,
    "longitude":-1.8713859825
  },
  {
    "station_name":"Dullingham Rail Station",
    "latitude":52.2016639915,
    "longitude":0.3666921781
  },
  {
    "station_name":"Dumbreck Rail Station",
    "latitude":55.8446425043,
    "longitude":-4.3012244995
  },
  {
    "station_name":"Dunbar Rail Station",
    "latitude":55.9982866312,
    "longitude":-2.513351643
  },
  {
    "station_name":"Durrington-on-Sea Rail Station",
    "latitude":50.817518034,
    "longitude":-0.4114439
  },
  {
    "station_name":"Dovercourt Rail Station",
    "latitude":51.9387503243,
    "longitude":1.2806410709
  },
  {
    "station_name":"Dove Holes Rail Station",
    "latitude":53.3000420778,
    "longitude":-1.8897505662
  },
  {
    "station_name":"Davenport Rail Station",
    "latitude":53.3909155002,
    "longitude":-2.1529566556
  },
  {
    "station_name":"Dover Priory Rail Station",
    "latitude":51.1257054631,
    "longitude":1.3053252348
  },
  {
    "station_name":"Dovey Junction Rail Station",
    "latitude":52.5643723647,
    "longitude":-3.9239110192
  },
  {
    "station_name":"Dolwyddelan Rail Station",
    "latitude":53.0520264903,
    "longitude":-3.885137383
  },
  {
    "station_name":"Dawlish Rail Station",
    "latitude":50.5808060844,
    "longitude":-3.4646385825
  },
  {
    "station_name":"Darwen Rail Station",
    "latitude":53.6980500658,
    "longitude":-2.4649373867
  },
  {
    "station_name":"Dawlish Warren Rail Station",
    "latitude":50.5986963334,
    "longitude":-3.4435746881
  },
  {
    "station_name":"Dyce Rail Station",
    "latitude":57.2056334738,
    "longitude":-2.1923277179
  },
  {
    "station_name":"Dyffryn Ardudwy Rail Station",
    "latitude":52.7888658497,
    "longitude":-4.1046506676
  },
  {
    "station_name":"Drayton Park Rail Station",
    "latitude":51.5527705023,
    "longitude":-0.1054827348
  },
  {
    "station_name":"Danzey Rail Station",
    "latitude":52.3248260043,
    "longitude":-1.8208686258
  },
  {
    "station_name":"Earlsfield Rail Station",
    "latitude":51.4423352541,
    "longitude":-0.1876904006
  },
  {
    "station_name":"Eaglescliffe Rail Station",
    "latitude":54.529441791,
    "longitude":-1.3494493173
  },
  {
    "station_name":"Ealing Broadway Rail Station",
    "latitude":51.5148407171,
    "longitude":-0.3017293164
  },
  {
    "station_name":"Earley Rail Station",
    "latitude":51.4410992799,
    "longitude":-0.9179692021
  },
  {
    "station_name":"Euxton Balshaw Lane Rail Station",
    "latitude":53.6604940469,
    "longitude":-2.6720207861
  },
  {
    "station_name":"Ebbw Vale Town Rail Station",
    "latitude":51.7766906034,
    "longitude":-3.2025853559
  },
  {
    "station_name":"Ebbsfleet International Rail Station",
    "latitude":51.4429711416,
    "longitude":0.3209500322
  },
  {
    "station_name":"Eastbrook Rail Station",
    "latitude":51.4376339068,
    "longitude":-3.206146908
  },
  {
    "station_name":"East Boldon Rail Station",
    "latitude":54.9464212649,
    "longitude":-1.4203275453
  },
  {
    "station_name":"Eastbourne Rail Station",
    "latitude":50.7693712403,
    "longitude":0.2812755597
  },
  {
    "station_name":"Edenbridge Rail Station",
    "latitude":51.2084314886,
    "longitude":0.0606723709
  },
  {
    "station_name":"Edenbridge Town Rail Station",
    "latitude":51.2000785009,
    "longitude":0.0671991686
  },
  {
    "station_name":"Ebbw Vale Parkway Rail Station",
    "latitude":51.7571458261,
    "longitude":-3.1961117844
  },
  {
    "station_name":"Eccles Rail Station",
    "latitude":53.4853736806,
    "longitude":-2.3345132824
  },
  {
    "station_name":"Eccleston Park Rail Station",
    "latitude":53.4308004759,
    "longitude":-2.7800407784
  },
  {
    "station_name":"Energlyn & Churchill Park Rail Station",
    "latitude":51.5832131774,
    "longitude":-3.2288061419
  },
  {
    "station_name":"East Croydon Rail Station",
    "latitude":51.3754518482,
    "longitude":-0.0927543224
  },
  {
    "station_name":"Eccles Road Rail Station",
    "latitude":52.4709032665,
    "longitude":0.9699418209
  },
  {
    "station_name":"Edinburgh Rail Station",
    "latitude":55.9523865322,
    "longitude":-3.1882291087
  },
  {
    "station_name":"Edge Hill Rail Station",
    "latitude":53.402631221,
    "longitude":-2.9464830162
  },
  {
    "station_name":"Edale Rail Station",
    "latitude":53.3649856666,
    "longitude":-1.8166247959
  },
  {
    "station_name":"Eden Park Rail Station",
    "latitude":51.3900885752,
    "longitude":-0.0263287699
  },
  {
    "station_name":"Edinburgh Park Rail Station",
    "latitude":55.9275440803,
    "longitude":-3.3076630256
  },
  {
    "station_name":"Edmonton Green Rail Station",
    "latitude":51.6249290203,
    "longitude":-0.0610875153
  },
  {
    "station_name":"East Dulwich Rail Station",
    "latitude":51.4614932275,
    "longitude":-0.080545987
  },
  {
    "station_name":"East Didsbury Rail Station",
    "latitude":53.4093226957,
    "longitude":-2.221995354
  },
  {
    "station_name":"Effingham Junction Rail Station",
    "latitude":51.2914916148,
    "longitude":-0.4199426403
  },
  {
    "station_name":"East Farleigh Rail Station",
    "latitude":51.2552346504,
    "longitude":0.484758691
  },
  {
    "station_name":"East Garforth Rail Station",
    "latitude":53.7919924434,
    "longitude":-1.3705405592
  },
  {
    "station_name":"Eggesford Rail Station",
    "latitude":50.887727229,
    "longitude":-3.8747670951
  },
  {
    "station_name":"Egham Rail Station",
    "latitude":51.4296448509,
    "longitude":-0.5464936108
  },
  {
    "station_name":"Eastrington Rail Station",
    "latitude":53.7551798175,
    "longitude":-0.7876353437
  },
  {
    "station_name":"East Grinstead Rail Station",
    "latitude":51.1262681111,
    "longitude":-0.0178726978
  },
  {
    "station_name":"Egton Rail Station",
    "latitude":54.4374940456,
    "longitude":-0.7614806216
  },
  {
    "station_name":"Edinburgh Gateway Rail Station",
    "latitude":55.940932789,
    "longitude":-3.3202500314
  },
  {
    "station_name":"Eskbank Rail Station",
    "latitude":55.8817963943,
    "longitude":-3.0830769228
  },
  {
    "station_name":"East Kilbride Rail Station",
    "latitude":55.7659978238,
    "longitude":-4.1802138231
  },
  {
    "station_name":"Earlswood (Surrey) Rail Station",
    "latitude":51.2273248317,
    "longitude":-0.1707971701
  },
  {
    "station_name":"Elmers End Rail Station",
    "latitude":51.398489582,
    "longitude":-0.0495441803
  },
  {
    "station_name":"Elgin Rail Station",
    "latitude":57.6428926912,
    "longitude":-3.3112425277
  },
  {
    "station_name":"Elton & Orston Rail Station",
    "latitude":52.9521557025,
    "longitude":-0.8555074435
  },
  {
    "station_name":"Ellesmere Port Rail Station",
    "latitude":53.2822052615,
    "longitude":-2.8964224623
  },
  {
    "station_name":"Elsecar Rail Station",
    "latitude":53.4986759683,
    "longitude":-1.4274252148
  },
  {
    "station_name":"Elstree & Borehamwood Rail Station",
    "latitude":51.6530715786,
    "longitude":-0.2800577261
  },
  {
    "station_name":"Eltham Rail Station",
    "latitude":51.4556421114,
    "longitude":0.0524986776
  },
  {
    "station_name":"Ely Rail Station",
    "latitude":52.391244221,
    "longitude":0.2668510603
  },
  {
    "station_name":"East Midlands Parkway Rail Station",
    "latitude":52.8625182507,
    "longitude":-1.2632265891
  },
  {
    "station_name":"East Malling Rail Station",
    "latitude":51.2858069522,
    "longitude":0.439309906
  },
  {
    "station_name":"Emerson Park Rail Station",
    "latitude":51.5686424022,
    "longitude":0.2201396373
  },
  {
    "station_name":"Emsworth Rail Station",
    "latitude":50.8516027835,
    "longitude":-0.9384144303
  },
  {
    "station_name":"Enfield Chase Rail Station",
    "latitude":51.6532550128,
    "longitude":-0.0906697288
  },
  {
    "station_name":"Enfield Town Rail Station",
    "latitude":51.6520265184,
    "longitude":-0.0793010146
  },
  {
    "station_name":"Enfield Lock Rail Station",
    "latitude":51.6709227126,
    "longitude":-0.0285062955
  },
  {
    "station_name":"Entwistle Rail Station",
    "latitude":53.6559908688,
    "longitude":-2.4145427951
  },
  {
    "station_name":"Epsom Downs Rail Station",
    "latitude":51.3236845001,
    "longitude":-0.23892976
  },
  {
    "station_name":"Elephant & Castle Rail Station",
    "latitude":51.4940282398,
    "longitude":-0.098700214
  },
  {
    "station_name":"Epsom Rail Station",
    "latitude":51.334389925,
    "longitude":-0.2687531384
  },
  {
    "station_name":"Eastham Rake Rail Station",
    "latitude":53.307552763,
    "longitude":-2.9811322454
  },
  {
    "station_name":"Erdington Rail Station",
    "latitude":52.5282972975,
    "longitude":-1.8395023401
  },
  {
    "station_name":"Erith Rail Station",
    "latitude":51.481669408,
    "longitude":0.1750812719
  },
  {
    "station_name":"Eridge Rail Station",
    "latitude":51.0889610517,
    "longitude":0.2014592494
  },
  {
    "station_name":"Earlestown Rail Station",
    "latitude":53.451151143,
    "longitude":-2.6376624607
  },
  {
    "station_name":"Elmstead Woods Rail Station",
    "latitude":51.4171157446,
    "longitude":0.0442997314
  },
  {
    "station_name":"Esher Rail Station",
    "latitude":51.3798880712,
    "longitude":-0.3533154601
  },
  {
    "station_name":"Eastleigh Rail Station",
    "latitude":50.9692403635,
    "longitude":-1.350073969
  },
  {
    "station_name":"Elsenham Rail Station",
    "latitude":51.920551892,
    "longitude":0.228097059
  },
  {
    "station_name":"Easterhouse Rail Station",
    "latitude":55.8597505142,
    "longitude":-4.1071641367
  },
  {
    "station_name":"Elmswell Rail Station",
    "latitude":52.2380555449,
    "longitude":0.9126215916
  },
  {
    "station_name":"Etchingham Rail Station",
    "latitude":51.0105413018,
    "longitude":0.4423847838
  },
  {
    "station_name":"East Tilbury Rail Station",
    "latitude":51.4848306628,
    "longitude":0.4129581196
  },
  {
    "station_name":"London Euston Rail Station",
    "latitude":51.5281364316,
    "longitude":-0.1338981275
  },
  {
    "station_name":"Evesham Rail Station",
    "latitude":52.0984067663,
    "longitude":-1.9473049925
  },
  {
    "station_name":"Earlswood (West Midlands) Rail Station",
    "latitude":52.3665938407,
    "longitude":-1.861161636
  },
  {
    "station_name":"Ewell East Rail Station",
    "latitude":51.3452967584,
    "longitude":-0.2415048775
  },
  {
    "station_name":"East Worthing Rail Station",
    "latitude":50.8216357611,
    "longitude":-0.3548680158
  },
  {
    "station_name":"Ewell West Rail Station",
    "latitude":51.350041877,
    "longitude":-0.2569621791
  },
  {
    "station_name":"Exeter Central Rail Station",
    "latitude":50.7264717379,
    "longitude":-3.5332911791
  },
  {
    "station_name":"Exeter St Davids Rail Station",
    "latitude":50.7292625509,
    "longitude":-3.5433010662
  },
  {
    "station_name":"Exhibition Centre (Glasgow) Rail Station",
    "latitude":55.8615443927,
    "longitude":-4.2835742363
  },
  {
    "station_name":"Exmouth Rail Station",
    "latitude":50.6216212923,
    "longitude":-3.4149848889
  },
  {
    "station_name":"Exton Rail Station",
    "latitude":50.6682904818,
    "longitude":-3.4441097276
  },
  {
    "station_name":"Essex Road Rail Station",
    "latitude":51.5407057256,
    "longitude":-0.0962497405
  },
  {
    "station_name":"Exeter St Thomas Rail Station",
    "latitude":50.717135131,
    "longitude":-3.5388511334
  },
  {
    "station_name":"Eynsford Rail Station",
    "latitude":51.3627174333,
    "longitude":0.2044201754
  },
  {
    "station_name":"Falmouth Docks Rail Station",
    "latitude":50.1506931982,
    "longitude":-5.0560746226
  },
  {
    "station_name":"Faversham Rail Station",
    "latitude":51.3117150831,
    "longitude":0.8910755277
  },
  {
    "station_name":"Fazakerley Rail Station",
    "latitude":53.4690990636,
    "longitude":-2.936722397
  },
  {
    "station_name":"Formby Rail Station",
    "latitude":53.5534917106,
    "longitude":-3.0709054604
  },
  {
    "station_name":"Falconwood Rail Station",
    "latitude":51.4591529464,
    "longitude":0.079330998
  },
  {
    "station_name":"Featherstone Rail Station",
    "latitude":53.6790826979,
    "longitude":-1.358447032
  },
  {
    "station_name":"Feltham Rail Station",
    "latitude":51.4478965298,
    "longitude":-0.4098171801
  },
  {
    "station_name":"Fenny Stratford Rail Station",
    "latitude":52.0000768774,
    "longitude":-0.7159762313
  },
  {
    "station_name":"Fernhill Rail Station",
    "latitude":51.6864981097,
    "longitude":-3.3958946145
  },
  {
    "station_name":"Ffairfach Rail Station",
    "latitude":51.8724808498,
    "longitude":-3.9928787809
  },
  {
    "station_name":"Freshford Rail Station",
    "latitude":51.3420243729,
    "longitude":-2.3010063939
  },
  {
    "station_name":"Fishguard Harbour Rail Station",
    "latitude":52.011557061,
    "longitude":-4.985670408
  },
  {
    "station_name":"Faygate Rail Station",
    "latitude":51.0958843958,
    "longitude":-0.2629910043
  },
  {
    "station_name":"Fishguard & Goodwick Rail Station",
    "latitude":52.0041284781,
    "longitude":-4.9948666231
  },
  {
    "station_name":"Filey Rail Station",
    "latitude":54.2098758908,
    "longitude":-0.2938654062
  },
  {
    "station_name":"Finstock Rail Station",
    "latitude":51.8527876529,
    "longitude":-1.4693269485
  },
  {
    "station_name":"Filton Abbey Wood Rail Station",
    "latitude":51.5049359236,
    "longitude":-2.5624320807
  },
  {
    "station_name":"Folkestone Central Rail Station",
    "latitude":51.0828894709,
    "longitude":1.1695144099
  },
  {
    "station_name":"Falkirk Grahamston Rail Station",
    "latitude":56.0026075153,
    "longitude":-3.7850391932
  },
  {
    "station_name":"Falkirk High Rail Station",
    "latitude":55.9918091725,
    "longitude":-3.7922363145
  },
  {
    "station_name":"Folkestone West Rail Station",
    "latitude":51.0845880696,
    "longitude":1.1539352777
  },
  {
    "station_name":"Fauldhouse Rail Station",
    "latitude":55.8224687949,
    "longitude":-3.7193103999
  },
  {
    "station_name":"Fleet Rail Station",
    "latitude":51.2906324021,
    "longitude":-0.8307895054
  },
  {
    "station_name":"Flowery Field Rail Station",
    "latitude":53.4618690949,
    "longitude":-2.0810528443
  },
  {
    "station_name":"Flixton Rail Station",
    "latitude":53.4438220233,
    "longitude":-2.3842455243
  },