[
  {
    "3alpha": "AAP",
    "station_name": "Alexandra Palace Rail Station",
    "latitude": 51.5979250073,
    "longitude": -0.1202099313
  },
  {
    "3alpha": "AAT",
    "station_name": "Achanalt Rail Station",
    "latitude": 57.6095763828,
    "longitude": -4.913846165
  },
  {
    "3alpha": "ABA",
    "station_name": "Aberdare Rail Station",
    "latitude": 51.7150603368,
    "longitude": -3.4430947912
  },
  {
    "3alpha": "ABC",
    "station_name": "Altnabreac Rail Station",
    "latitude": 58.3881329239,
    "longitude": -3.7062873902
  },
  {
    "3alpha": "ABD",
    "station_name": "Aberdeen Rail Station",
    "latitude": 57.1436867734,
    "longitude": -2.0986925585
  },
  {
    "3alpha": "ABE",
    "station_name": "Aber Rail Station",
    "latitude": 51.5749656756,
    "longitude": -3.2298391052
  },
  {
    "3alpha": "ABH",
    "station_name": "Abererch Rail Station",
    "latitude": 52.8985982311,
    "longitude": -4.3741839689
  },
  {
    "3alpha": "ABW",
    "station_name": "Abbey Wood (London) Rail Station",
    "latitude": 51.4910611665,
    "longitude": 0.1214217457
  },
  {
    "3alpha": "ABY",
    "station_name": "Ashburys Rail Station",
    "latitude": 53.4716521884,
    "longitude": -2.194434998
  },
  {
    "3alpha": "ACB",
    "station_name": "Acton Bridge Rail Station",
    "latitude": 53.2665207003,
    "longitude": -2.6031255204
  },
  {
    "3alpha": "ACC",
    "station_name": "Acton Central Rail Station",
    "latitude": 51.5087156784,
    "longitude": -0.2629477949
  },
  {
    "3alpha": "ACG",
    "station_name": "Acocks Green Rail Station",
    "latitude": 52.4493357815,
    "longitude": -1.8189696484
  },
  {
    "3alpha": "ACH",
    "station_name": "Achnashellach Rail Station",
    "latitude": 57.4820517208,
    "longitude": -5.3330497284
  },
  {
    "3alpha": "ACK",
    "station_name": "Acklington Rail Station",
    "latitude": 55.3070995797,
    "longitude": -1.6518483985
  },
  {
    "3alpha": "ACL",
    "station_name": "Acle Rail Station",
    "latitude": 52.6347061444,
    "longitude": 1.5439384675
  },
  {
    "3alpha": "ACN",
    "station_name": "Achnasheen Rail Station",
    "latitude": 57.5792680938,
    "longitude": -5.0723280881
  },
  {
    "3alpha": "ACR",
    "station_name": "Accrington Rail Station",
    "latitude": 53.7529844843,
    "longitude": -2.3695474455
  },
  {
    "3alpha": "ACT",
    "station_name": "Ascot Rail Station",
    "latitude": 51.4062421592,
    "longitude": -0.6758156963
  },
  {
    "3alpha": "ACY",
    "station_name": "Abercynon Rail Station",
    "latitude": 51.6447111646,
    "longitude": -3.3270008927
  },
  {
    "3alpha": "ADC",
    "station_name": "Adlington (Cheshire) Rail Station",
    "latitude": 53.3195695329,
    "longitude": -2.1335617879
  },
  {
    "3alpha": "ADD",
    "station_name": "Adderley Park Rail Station",
    "latitude": 52.4830987434,
    "longitude": -1.8559397876
  },
  {
    "3alpha": "ADK",
    "station_name": "Ardwick Rail Station",
    "latitude": 53.471358298,
    "longitude": -2.213882234
  },
  {
    "3alpha": "ADL",
    "station_name": "Adlington (Lancs) Rail Station",
    "latitude": 53.6132582182,
    "longitude": -2.603069152
  },
  {
    "3alpha": "ADM",
    "station_name": "Adisham Rail Station",
    "latitude": 51.2412043148,
    "longitude": 1.1991182098
  },
  {
    "3alpha": "ADN",
    "station_name": "Ardrossan Town Rail Station",
    "latitude": 55.6397026924,
    "longitude": -4.8126528377
  },
  {
    "3alpha": "ADR",
    "station_name": "Airdrie Rail Station",
    "latitude": 55.8639734432,
    "longitude": -3.9829014475
  },
  {
    "3alpha": "ADS",
    "station_name": "Ardrossan Harbour Rail Station",
    "latitude": 55.6398684301,
    "longitude": -4.8210878622
  },
  {
    "3alpha": "ADV",
    "station_name": "Andover Rail Station",
    "latitude": 51.2115409141,
    "longitude": -1.4922208179
  },
  {
    "3alpha": "ADW",
    "station_name": "Addiewell Rail Station",
    "latitude": 55.8434039199,
    "longitude": -3.6065211407
  },
  {
    "3alpha": "AFK",
    "station_name": "Ashford International Rail Station",
    "latitude": 51.143703647,
    "longitude": 0.8762282027
  },
  {
    "3alpha": "AFS",
    "station_name": "Ashford (Surrey) Rail Station",
    "latitude": 51.4365050918,
    "longitude": -0.4680505426
  },
  {
    "3alpha": "AFV",
    "station_name": "Ansdell & Fairhaven Rail Station",
    "latitude": 53.7414755302,
    "longitude": -2.9930315929
  },
  {
    "3alpha": "AGL",
    "station_name": "Abergele & Pensarn Rail Station",
    "latitude": 53.2945885877,
    "longitude": -3.5826252049
  },
  {
    "3alpha": "AGR",
    "station_name": "Angel Road Rail Station",
    "latitude": 51.612404791,
    "longitude": -0.0487664558
  },
  {
    "3alpha": "AGS",
    "station_name": "Argyle Street Rail Station",
    "latitude": 55.8572976321,
    "longitude": -4.2506797284
  },
  {
    "3alpha": "AGT",
    "station_name": "Aldrington Rail Station",
    "latitude": 50.8363759964,
    "longitude": -0.1837938786
  },
  {
    "3alpha": "AGV",
    "station_name": "Abergavenny Rail Station",
    "latitude": 51.8166929204,
    "longitude": -3.0096529786
  },
  {
    "3alpha": "AHD",
    "station_name": "Ashtead Rail Station",
    "latitude": 51.3178707762,
    "longitude": -0.3075480044
  },
  {
    "3alpha": "AHN",
    "station_name": "Ashton-under-Lyne Rail Station",
    "latitude": 53.4912877289,
    "longitude": -2.0943117675
  },
  {
    "3alpha": "AHS",
    "station_name": "Ashurst (Kent) Rail Station",
    "latitude": 51.1286581521,
    "longitude": 0.1526783965
  },
  {
    "3alpha": "AHT",
    "station_name": "Aldershot Rail Station",
    "latitude": 51.2464146675,
    "longitude": -0.7598418662
  },
  {
    "3alpha": "AHV",
    "station_name": "Ash Vale Rail Station",
    "latitude": 51.2722439454,
    "longitude": -0.721630982
  },
  {
    "3alpha": "AIG",
    "station_name": "Aigburth Rail Station",
    "latitude": 53.364579864,
    "longitude": -2.9271549702
  },
  {
    "3alpha": "AIN",
    "station_name": "Aintree Rail Station",
    "latitude": 53.4739239739,
    "longitude": -2.9562794487
  },
  {
    "3alpha": "AIR",
    "station_name": "Airbles Rail Station",
    "latitude": 55.7828281606,
    "longitude": -3.9941848819
  },
  {
    "3alpha": "ALB",
    "station_name": "Albrighton Rail Station",
    "latitude": 52.637955578,
    "longitude": -2.2688961662
  },
  {
    "3alpha": "ALD",
    "station_name": "Alderley Edge Rail Station",
    "latitude": 53.3037949434,
    "longitude": -2.2367975748
  },
  {
    "3alpha": "ALF",
    "station_name": "Alfreton Rail Station",
    "latitude": 53.1004491479,
    "longitude": -1.3696938892
  },
  {
    "3alpha": "ALK",
    "station_name": "Aslockton Rail Station",
    "latitude": 52.9515688778,
    "longitude": -0.8980931448
  },
  {
    "3alpha": "ALM",
    "station_name": "Alnmouth Rail Station",
    "latitude": 55.3927781339,
    "longitude": -1.6366531856
  },
  {
    "3alpha": "ALN",
    "station_name": "Althorne Rail Station",
    "latitude": 51.647874589,
    "longitude": 0.7525126479
  },
  {
    "3alpha": "ALO",
    "station_name": "Alloa Rail Station",
    "latitude": 56.1177816937,
    "longitude": -3.7900478514
  },
  {
    "3alpha": "ALP",
    "station_name": "Althorpe Rail Station",
    "latitude": 53.5855202235,
    "longitude": -0.7331858491
  },
  {
    "3alpha": "ALR",
    "station_name": "Alresford (Essex) Rail Station",
    "latitude": 51.8540099196,
    "longitude": 0.9974663385
  },
  {
    "3alpha": "ALT",
    "station_name": "Altrincham Rail Station",
    "latitude": 53.3877312834,
    "longitude": -2.3468882352
  },
  {
    "3alpha": "ALV",
    "station_name": "Alvechurch Rail Station",
    "latitude": 52.3460841489,
    "longitude": -1.96765319
  },
  {
    "3alpha": "ALW",
    "station_name": "Allens West Rail Station",
    "latitude": 54.5246329186,
    "longitude": -1.361128823
  },
  {
    "3alpha": "ALX",
    "station_name": "Alexandria Rail Station",
    "latitude": 55.9850750252,
    "longitude": -4.5774669847
  },
  {
    "3alpha": "AMB",
    "station_name": "Ambergate Rail Station",
    "latitude": 53.0605332632,
    "longitude": -1.4806950473
  },
  {
    "3alpha": "AMF",
    "station_name": "Ammanford Rail Station",
    "latitude": 51.7959802661,
    "longitude": -3.9967546569
  },
  {
    "3alpha": "AML",
    "station_name": "Acton Main Line Rail Station",
    "latitude": 51.5171796932,
    "longitude": -0.2667334712
  },
  {
    "3alpha": "AMR",
    "station_name": "Amersham Rail Station",
    "latitude": 51.6742082152,
    "longitude": -0.6075738184
  },
  {
    "3alpha": "AMT",
    "station_name": "Aldermaston Rail Station",
    "latitude": 51.4019601992,
    "longitude": -1.1374044609
  },
  {
    "3alpha": "AMY",
    "station_name": "Amberley Rail Station",
    "latitude": 50.8966706624,
    "longitude": -0.5419699859
  },
  {
    "3alpha": "ANC",
    "station_name": "Ancaster Rail Station",
    "latitude": 52.9877078434,
    "longitude": -0.5356177511
  },
  {
    "3alpha": "AND",
    "station_name": "Anderston Rail Station",
    "latitude": 55.8598905332,
    "longitude": -4.2709646678
  },
  {
    "3alpha": "ANF",
    "station_name": "Ashurst New Forest Rail Station",
    "latitude": 50.8898407705,
    "longitude": -1.5266232035
  },
  {
    "3alpha": "ANG",
    "station_name": "Angmering Rail Station",
    "latitude": 50.8165649857,
    "longitude": -0.4893702151
  },
  {
    "3alpha": "ANL",
    "station_name": "Anniesland Rail Station",
    "latitude": 55.8893432336,
    "longitude": -4.3219418416
  },
  {
    "3alpha": "ANN",
    "station_name": "Annan Rail Station",
    "latitude": 54.9838392542,
    "longitude": -3.2625828964
  },
  {
    "3alpha": "ANS",
    "station_name": "Ainsdale Rail Station",
    "latitude": 53.6020465522,
    "longitude": -3.0426494721
  },
  {
    "3alpha": "ANZ",
    "station_name": "Anerley Rail Station",
    "latitude": 51.4121504955,
    "longitude": -0.0658599305
  },
  {
    "3alpha": "AON",
    "station_name": "Alton Rail Station",
    "latitude": 51.151964195,
    "longitude": -0.9668980606
  },
  {
    "3alpha": "APB",
    "station_name": "Appley Bridge Rail Station",
    "latitude": 53.5786855814,
    "longitude": -2.7192513076
  },
  {
    "3alpha": "APD",
    "station_name": "Appledore (Kent) Rail Station",
    "latitude": 51.0332339326,
    "longitude": 0.8163754751
  },
  {
    "3alpha": "APF",
    "station_name": "Appleford Rail Station",
    "latitude": 51.6396427695,
    "longitude": -1.2421230581
  },
  {
    "3alpha": "APG",
    "station_name": "Aspley Guise Rail Station",
    "latitude": 52.0212455205,
    "longitude": -0.6323124906
  },
  {
    "3alpha": "APN",
    "station_name": "Newcastle Airport Metro",
    "latitude": 55.0359539314,
    "longitude": -1.7110611354
  },
  {
    "3alpha": "APP",
    "station_name": "Appleby Rail Station",
    "latitude": 54.5803531214,
    "longitude": -2.4866970812
  },
  {
    "3alpha": "APS",
    "station_name": "Apsley Rail Station",
    "latitude": 51.7325265818,
    "longitude": -0.462913617
  },
  {
    "3alpha": "APY",
    "station_name": "Apperley Bridge Rail Station",
    "latitude": 53.8417623189,
    "longitude": -1.7058332
  },
  {
    "3alpha": "ARB",
    "station_name": "Arbroath Rail Station",
    "latitude": 56.5595623759,
    "longitude": -2.58893669
  },
  {
    "3alpha": "ARD",
    "station_name": "Ardgay Rail Station",
    "latitude": 57.8814343743,
    "longitude": -4.3620902545
  },
  {
    "3alpha": "ARG",
    "station_name": "Arisaig Rail Station",
    "latitude": 56.9125239651,
    "longitude": -5.8390581876
  },
  {
    "3alpha": "ARL",
    "station_name": "Arlesey Rail Station",
    "latitude": 52.0260393622,
    "longitude": -0.2662942214
  },
  {
    "3alpha": "ARM",
    "station_name": "Armadale (W Lothian) Rail Station",
    "latitude": 55.8857041796,
    "longitude": -3.6954045698
  },
  {
    "3alpha": "ARN",
    "station_name": "Arnside Rail Station",
    "latitude": 54.2027369524,
    "longitude": -2.8282411629
  },
  {
    "3alpha": "ARR",
    "station_name": "Arram Rail Station",
    "latitude": 53.8843617225,
    "longitude": -0.4265787094
  },
  {
    "3alpha": "ART",
    "station_name": "Arrochar & Tarbet Rail Station",
    "latitude": 56.2039604882,
    "longitude": -4.7227536136
  },
  {
    "3alpha": "ARU",
    "station_name": "Arundel Rail Station",
    "latitude": 50.848204225,
    "longitude": -0.5461513877
  },
  {
    "3alpha": "ASB",
    "station_name": "Ardrossan South Beach Rail Station",
    "latitude": 55.6414123987,
    "longitude": -4.8011892639
  },
  {
    "3alpha": "ASC",
    "station_name": "Ashchurch for Tewkesbury Rail Station",
    "latitude": 51.9989119042,
    "longitude": -2.1087526816
  },
  {
    "3alpha": "ASF",
    "station_name": "Ashfield Rail Station",
    "latitude": 55.8889152278,
    "longitude": -4.2492001758
  },
  {
    "3alpha": "ASG",
    "station_name": "Alsager Rail Station",
    "latitude": 53.0930183471,
    "longitude": -2.2990577384
  },
  {
    "3alpha": "ASH",
    "station_name": "Ash Rail Station",
    "latitude": 51.2495930968,
    "longitude": -0.7127872134
  },
  {
    "3alpha": "ASK",
    "station_name": "Askam Rail Station",
    "latitude": 54.1889365481,
    "longitude": -3.2045108901
  },
  {
    "3alpha": "ASN",
    "station_name": "Addlestone Rail Station",
    "latitude": 51.3730427936,
    "longitude": -0.4844377608
  },
  {
    "3alpha": "ASP",
    "station_name": "Aspatria Rail Station",
    "latitude": 54.7589613565,
    "longitude": -3.3318751754
  },
  {
    "3alpha": "ASS",
    "station_name": "Alness Rail Station",
    "latitude": 57.6943767246,
    "longitude": -4.2497156226
  },
  {
    "3alpha": "AST",
    "station_name": "Aston Rail Station",
    "latitude": 52.5042436334,
    "longitude": -1.8719289166
  },
  {
    "3alpha": "ASY",
    "station_name": "Ashley Rail Station",
    "latitude": 53.3557384507,
    "longitude": -2.3414591344
  },
  {
    "3alpha": "ATB",
    "station_name": "Attenborough Rail Station",
    "latitude": 52.9062307659,
    "longitude": -1.2314110309
  },
  {
    "3alpha": "ATH",
    "station_name": "Atherstone Rail Station",
    "latitude": 52.5789873633,
    "longitude": -1.5528024825
  },
  {
    "3alpha": "ATL",
    "station_name": "Attleborough Rail Station",
    "latitude": 52.5145682909,
    "longitude": 1.0223710881
  },
  {
    "3alpha": "ATN",
    "station_name": "Atherton Rail Station",
    "latitude": 53.5291592416,
    "longitude": -2.4789715129
  },
  {
    "3alpha": "ATT",
    "station_name": "Attadale Rail Station",
    "latitude": 57.395013788,
    "longitude": -5.4555693529
  },
  {
    "3alpha": "AUD",
    "station_name": "Audley End Rail Station",
    "latitude": 52.0044503988,
    "longitude": 0.2071861287
  },
  {
    "3alpha": "AUG",
    "station_name": "Aughton Park Rail Station",
    "latitude": 53.5542616334,
    "longitude": -2.8952192106
  },
  {
    "3alpha": "AUI",
    "station_name": "Ardlui Rail Station",
    "latitude": 56.3019554792,
    "longitude": -4.7216411129
  },
  {
    "3alpha": "AUK",
    "station_name": "Auchinleck Rail Station",
    "latitude": 55.4702735607,
    "longitude": -4.2953352235
  },
  {
    "3alpha": "AUR",
    "station_name": "Aberdour Rail Station",
    "latitude": 56.0545845646,
    "longitude": -3.3005596025
  },
  {
    "3alpha": "AUW",
    "station_name": "Ascott-under-Wychwood Rail Station",
    "latitude": 51.8673469281,
    "longitude": -1.5640381523
  },
  {
    "3alpha": "AVF",
    "station_name": "Avoncliff Rail Station",
    "latitude": 51.3396455319,
    "longitude": -2.2813231272
  },
  {
    "3alpha": "AVM",
    "station_name": "Aviemore Rail Station",
    "latitude": 57.1884955899,
    "longitude": -3.8288664748
  },
  {
    "3alpha": "AVN",
    "station_name": "Avonmouth Rail Station",
    "latitude": 51.5003586482,
    "longitude": -2.6994701634
  },
  {
    "3alpha": "AVP",
    "station_name": "Aylesbury Vale Parkway Rail Station",
    "latitude": 51.8311641936,
    "longitude": -0.860160203
  },
  {
    "3alpha": "AVY",
    "station_name": "Aberdovey Rail Station",
    "latitude": 52.5439709134,
    "longitude": -4.0570763906
  },
  {
    "3alpha": "AWK",
    "station_name": "Adwick Rail Station",
    "latitude": 53.5723385016,
    "longitude": -1.1803591649
  },
  {
    "3alpha": "AWM",
    "station_name": "Ashwell & Morden Rail Station",
    "latitude": 52.0307801801,
    "longitude": -0.1097609643
  },
  {
    "3alpha": "AWT",
    "station_name": "Armathwaite Rail Station",
    "latitude": 54.8094705871,
    "longitude": -2.7720762415
  },
  {
    "3alpha": "AXM",
    "station_name": "Axminster Rail Station",
    "latitude": 50.7792590196,
    "longitude": -3.0047301649
  },
  {
    "3alpha": "AXP",
    "station_name": "Alexandra Parade Rail Station",
    "latitude": 55.8631647206,
    "longitude": -4.2106343183
  },
  {
    "3alpha": "AYH",
    "station_name": "Aylesham Rail Station",
    "latitude": 51.2272573443,
    "longitude": 1.2094822749
  },
  {
    "3alpha": "AYL",
    "station_name": "Aylesford Rail Station",
    "latitude": 51.3013150665,
    "longitude": 0.4661994822
  },
  {
    "3alpha": "AYP",
    "station_name": "Albany Park Rail Station",
    "latitude": 51.4354510748,
    "longitude": 0.1257631402
  },
  {
    "3alpha": "AYR",
    "station_name": "Ayr Rail Station",
    "latitude": 55.4581420821,
    "longitude": -4.6258547017
  },
  {
    "3alpha": "AYS",
    "station_name": "Aylesbury Rail Station",
    "latitude": 51.8138958856,
    "longitude": -0.8150732917
  },
  {
    "3alpha": "AYW",
    "station_name": "Aberystwyth Rail Station",
    "latitude": 52.4140589056,
    "longitude": -4.081904916
  },
  {
    "3alpha": "BAA",
    "station_name": "Barnham Rail Station",
    "latitude": 50.8308955044,
    "longitude": -0.6396586529
  },
  {
    "3alpha": "BAB",
    "station_name": "Balcombe Rail Station",
    "latitude": 51.0555161298,
    "longitude": -0.1369064512
  },
  {
    "3alpha": "BAC",
    "station_name": "Bache Rail Station",
    "latitude": 53.2087996005,
    "longitude": -2.8916714556
  },
  {
    "3alpha": "BAD",
    "station_name": "Banstead Rail Station",
    "latitude": 51.3293456873,
    "longitude": -0.2131338747
  },
  {
    "3alpha": "BAG",
    "station_name": "Bagshot Rail Station",
    "latitude": 51.3643658384,
    "longitude": -0.688644212
  },
  {
    "3alpha": "BAH",
    "station_name": "Bank Hall Rail Station",
    "latitude": 53.4375081504,
    "longitude": -2.9875109807
  },
  {
    "3alpha": "BAI",
    "station_name": "Blairhill Rail Station",
    "latitude": 55.866445195,
    "longitude": -4.0432793703
  },
  {
    "3alpha": "BAJ",
    "station_name": "Baglan Rail Station",
    "latitude": 51.6155428964,
    "longitude": -3.8111528304
  },
  {
    "3alpha": "BAK",
    "station_name": "Battersea Park Rail Station",
    "latitude": 51.4769589055,
    "longitude": -0.1475087424
  },
  {
    "3alpha": "BAL",
    "station_name": "Balham Rail Station",
    "latitude": 51.4432235254,
    "longitude": -0.1523989843
  },
  {
    "3alpha": "BAM",
    "station_name": "Bamford Rail Station",
    "latitude": 53.3390149874,
    "longitude": -1.6890804845
  },
  {
    "3alpha": "BAN",
    "station_name": "Banbury Rail Station",
    "latitude": 52.0603171415,
    "longitude": -1.3281174658
  },
  {
    "3alpha": "BAR",
    "station_name": "Bare Lane Rail Station",
    "latitude": 54.0745502872,
    "longitude": -2.8353285199
  },
  {
    "3alpha": "BAS",
    "station_name": "Bere Alston Rail Station",
    "latitude": 50.4855801051,
    "longitude": -4.2003841017
  },
  {
    "3alpha": "BAT",
    "station_name": "Battle Rail Station",
    "latitude": 50.9129099302,
    "longitude": 0.494731748
  },
  {
    "3alpha": "BAU",
    "station_name": "Barton-on-Humber Rail Station",
    "latitude": 53.6889361427,
    "longitude": -0.443441463
  },
  {
    "3alpha": "BAV",
    "station_name": "Barrow Haven Rail Station",
    "latitude": 53.6974399715,
    "longitude": -0.3929610176
  },
  {
    "3alpha": "BAW",
    "station_name": "Blackwater Rail Station",
    "latitude": 51.3315799276,
    "longitude": -0.7767238015
  },
  {
    "3alpha": "BAY",
    "station_name": "Bayford Rail Station",
    "latitude": 51.7577191097,
    "longitude": -0.0955835363
  },
  {
    "3alpha": "BBG",
    "station_name": "Bishopbriggs Rail Station",
    "latitude": 55.9038715243,
    "longitude": -4.2249012111
  },
  {
    "3alpha": "BBK",
    "station_name": "Bilbrook Rail Station",
    "latitude": 52.6237315662,
    "longitude": -2.1860832074
  },
  {
    "3alpha": "BBL",
    "station_name": "Bat & Ball Rail Station",
    "latitude": 51.28975765,
    "longitude": 0.1942546658
  },
  {
    "3alpha": "BBN",
    "station_name": "Blackburn Rail Station",
    "latitude": 53.7465295919,
    "longitude": -2.4791202443
  },
  {
    "3alpha": "BBS",
    "station_name": "Bordesley Rail Station",
    "latitude": 52.4718857429,
    "longitude": -1.877763734
  },
  {
    "3alpha": "BBW",
    "station_name": "Berry Brow Rail Station",
    "latitude": 53.6210542572,
    "longitude": -1.793433127
  },
  {
    "3alpha": "BCB",
    "station_name": "Burscough Bridge Rail Station",
    "latitude": 53.6052706223,
    "longitude": -2.8408791461
  },
  {
    "3alpha": "BCC",
    "station_name": "Beccles Rail Station",
    "latitude": 52.4585445204,
    "longitude": 1.5695203477
  },
  {
    "3alpha": "BCE",
    "station_name": "Bracknell Rail Station",
    "latitude": 51.4130905636,
    "longitude": -0.7516868278
  },
  {
    "3alpha": "BCF",
    "station_name": "Beaconsfield Rail Station",
    "latitude": 51.6112923305,
    "longitude": -0.6438028303
  },
  {
    "3alpha": "BCG",
    "station_name": "Birchgrove Rail Station",
    "latitude": 51.5215559616,
    "longitude": -3.2018626211
  },
  {
    "3alpha": "BCH",
    "station_name": "Birchington-on-Sea Rail Station",
    "latitude": 51.37749655,
    "longitude": 1.3014357084
  },
  {
    "3alpha": "BCJ",
    "station_name": "Burscough Junction Rail Station",
    "latitude": 53.5975334888,
    "longitude": -2.8406044888
  },
  {
    "3alpha": "BCK",
    "station_name": "Buckley Rail Station",
    "latitude": 53.1630498684,
    "longitude": -3.0559258882
  },
  {
    "3alpha": "BCN",
    "station_name": "Branchton Rail Station",
    "latitude": 55.9405880748,
    "longitude": -4.8035281728
  },
  {
    "3alpha": "BCS",
    "station_name": "Bicester North Rail Station",
    "latitude": 51.9034889722,
    "longitude": -1.1503639712
  },
  {
    "3alpha": "BCU",
    "station_name": "Brockenhurst Rail Station",
    "latitude": 50.8168300371,
    "longitude": -1.5735227393
  },
  {
    "3alpha": "BCV",
    "station_name": "Bruce Grove Rail Station",
    "latitude": 51.5939593358,
    "longitude": -0.0698420983
  },
  {
    "3alpha": "BCY",
    "station_name": "Brockley Rail Station",
    "latitude": 51.4646472415,
    "longitude": -0.0375111039
  },
  {
    "3alpha": "BDA",
    "station_name": "Brundall Rail Station",
    "latitude": 52.6195070541,
    "longitude": 1.4393221465
  },
  {
    "3alpha": "BDB",
    "station_name": "Broadbottom Rail Station",
    "latitude": 53.4409884275,
    "longitude": -2.0165194714
  },
  {
    "3alpha": "BDG",
    "station_name": "Bridgeton Rail Station",
    "latitude": 55.8489565185,
    "longitude": -4.2260423916
  },
  {
    "3alpha": "BDH",
    "station_name": "Bedhampton Rail Station",
    "latitude": 50.8539453593,
    "longitude": -0.9958127279
  },
  {
    "3alpha": "BDI",
    "station_name": "Bradford Interchange Rail Station",
    "latitude": 53.7910884508,
    "longitude": -1.7495992021
  },
  {
    "3alpha": "BDK",
    "station_name": "Baldock Rail Station",
    "latitude": 51.9928784919,
    "longitude": -0.1875367625
  },
  {
    "3alpha": "BDL",
    "station_name": "Birkdale Rail Station",
    "latitude": 53.6340637332,
    "longitude": -3.0144470298
  },
  {
    "3alpha": "BDM",
    "station_name": "Bedford Rail Station",
    "latitude": 52.1361978063,
    "longitude": -0.4794210009
  },
  {
    "3alpha": "BDN",
    "station_name": "Brading Rail Station",
    "latitude": 50.6783584598,
    "longitude": -1.1387118948
  },
  {
    "3alpha": "BDQ",
    "station_name": "Bradford Forster Square Rail Station",
    "latitude": 53.7969375902,
    "longitude": -1.7529651428
  },
  {
    "3alpha": "BDT",
    "station_name": "Bridlington Rail Station",
    "latitude": 54.0841498279,
    "longitude": -0.198733799
  },
  {
    "3alpha": "BDW",
    "station_name": "Bedwyn Rail Station",
    "latitude": 51.3796362626,
    "longitude": -1.5987734873
  },
  {
    "3alpha": "BDY",
    "station_name": "Bredbury Rail Station",
    "latitude": 53.423168059,
    "longitude": -2.1104866302
  },
  {
    "3alpha": "BEA",
    "station_name": "Bridge of Allan Rail Station",
    "latitude": 56.1566272012,
    "longitude": -3.9572209128
  },
  {
    "3alpha": "BEB",
    "station_name": "Bebington Rail Station",
    "latitude": 53.3576688627,
    "longitude": -3.0036346698
  },
  {
    "3alpha": "BEC",
    "station_name": "Beckenham Hill Rail Station",
    "latitude": 51.4245803532,
    "longitude": -0.0159250385
  },
  {
    "3alpha": "BEE",
    "station_name": "Beeston Rail Station",
    "latitude": 52.920772808,
    "longitude": -1.2076539126
  },
  {
    "3alpha": "BEF",
    "station_name": "Benfleet Rail Station",
    "latitude": 51.543946833,
    "longitude": 0.5617405199
  },
  {
    "3alpha": "BEG",
    "station_name": "Beltring Rail Station",
    "latitude": 51.2047052539,
    "longitude": 0.4035240323
  },
  {
    "3alpha": "BEH",
    "station_name": "Bedworth Rail Station",
    "latitude": 52.4793121537,
    "longitude": -1.4673840381
  },
  {
    "3alpha": "BEL",
    "station_name": "Beauly Rail Station",
    "latitude": 57.4782638344,
    "longitude": -4.4698634331
  },
  {
    "3alpha": "BEM",
    "station_name": "Bempton Rail Station",
    "latitude": 54.1276779105,
    "longitude": -0.1804704307
  },
  {
    "3alpha": "BEN",
    "station_name": "Bentham Rail Station",
    "latitude": 54.115527405,
    "longitude": -2.5106784228
  },
  {
    "3alpha": "BEP",
    "station_name": "Bermuda Park Rail Station",
    "latitude": 52.5014490814,
    "longitude": -1.4721692914
  },
  {
    "3alpha": "BER",
    "station_name": "Bearley Rail Station",
    "latitude": 52.2444229433,
    "longitude": -1.7502469172
  },
  {
    "3alpha": "BES",
    "station_name": "Bescar Lane Rail Station",
    "latitude": 53.6238666357,
    "longitude": -2.914609859
  },
  {
    "3alpha": "BET",
    "station_name": "Bethnal Green Rail Station",
    "latitude": 51.5239168448,
    "longitude": -0.0595413255
  },
  {
    "3alpha": "BEU",
    "station_name": "Beaulieu Road Rail Station",
    "latitude": 50.8550379245,
    "longitude": -1.5047402125
  },
  {
    "3alpha": "BEV",
    "station_name": "Beverley Rail Station",
    "latitude": 53.8422910042,
    "longitude": -0.4229880841
  },
  {
    "3alpha": "BEX",
    "station_name": "Bexhill Rail Station",
    "latitude": 50.8410361246,
    "longitude": 0.4770465179
  },
  {
    "3alpha": "BEY",
    "station_name": "Ben Rhydding Rail Station",
    "latitude": 53.9257271035,
    "longitude": -1.797433526
  },
  {
    "3alpha": "BFD",
    "station_name": "Brentford Rail Station",
    "latitude": 51.4875455966,
    "longitude": -0.3096291503
  },
  {
    "3alpha": "BFE",
    "station_name": "Bere Ferrers Rail Station",
    "latitude": 50.4512627598,
    "longitude": -4.1814634554
  },
  {
    "3alpha": "BFF",
    "station_name": "Blaenau Ffestiniog Rail Station",
    "latitude": 52.9945625755,
    "longitude": -3.9386014215
  },
  {
    "3alpha": "BFN",
    "station_name": "Byfleet & New Haw Rail Station",
    "latitude": 51.3497933814,
    "longitude": -0.4813698884
  },
  {
    "3alpha": "BFR",
    "station_name": "London Blackfriars Rail Station",
    "latitude": 51.511809604,
    "longitude": -0.1033064322
  },
  {
    "3alpha": "BGA",
    "station_name": "Brundall Gardens Rail Station",
    "latitude": 52.6234667847,
    "longitude": 1.4184395543
  },
  {
    "3alpha": "BGD",
    "station_name": "Bargoed Rail Station",
    "latitude": 51.6923106201,
    "longitude": -3.2296893004
  },
  {
    "3alpha": "BGE",
    "station_name": "Broad Green Rail Station",
    "latitude": 53.4065176265,
    "longitude": -2.8934838097
  },
  {
    "3alpha": "BGG",
    "station_name": "Brigg Rail Station",
    "latitude": 53.5491644813,
    "longitude": -0.4861278561
  },
  {
    "3alpha": "BGH",
    "station_name": "Brighouse Rail Station",
    "latitude": 53.6982108642,
    "longitude": -1.7794410593
  },
  {
    "3alpha": "BGI",
    "station_name": "Bargeddie Rail Station",
    "latitude": 55.8512854533,
    "longitude": -4.073795488
  },
  {
    "3alpha": "BGL",
    "station_name": "Bugle Rail Station",
    "latitude": 50.4003357574,
    "longitude": -4.7921412594
  },
  {
    "3alpha": "BGM",
    "station_name": "Bellingham Rail Station",
    "latitude": 51.432910924,
    "longitude": -0.0193048772
  },
  {
    "3alpha": "BGN",
    "station_name": "Bridgend Rail Station",
    "latitude": 51.5069726538,
    "longitude": -3.5752917878
  },
  {
    "3alpha": "BGS",
    "station_name": "Bogston Rail Station",
    "latitude": 55.9370336273,
    "longitude": -4.7113815133
  },
  {
    "3alpha": "BHC",
    "station_name": "Balloch Rail Station",
    "latitude": 56.0029254961,
    "longitude": -4.5834681974
  },
  {
    "3alpha": "BHD",
    "station_name": "Brithdir Rail Station",
    "latitude": 51.7103040613,
    "longitude": -3.2287299229
  },
  {
    "3alpha": "BHG",
    "station_name": "Bathgate Rail Station",
    "latitude": 55.8971463148,
    "longitude": -3.6360891747
  },
  {
    "3alpha": "BHI",
    "station_name": "Birmingham International Rail Station",
    "latitude": 52.4508199122,
    "longitude": -1.7258497513
  },
  {
    "3alpha": "BHK",
    "station_name": "Bush Hill Park Rail Station",
    "latitude": 51.6415193249,
    "longitude": -0.0691949356
  },
  {
    "3alpha": "BHM",
    "station_name": "Birmingham New Street Rail Station",
    "latitude": 52.4778312827,
    "longitude": -1.9002004707
  },
  {
    "3alpha": "BHO",
    "station_name": "Blackhorse Road Rail Station",
    "latitude": 51.5866055024,
    "longitude": -0.041209942
  },
  {
    "3alpha": "BHR",
    "station_name": "Builth Road Rail Station",
    "latitude": 52.1693300616,
    "longitude": -3.4270408474
  },
  {
    "3alpha": "BHS",
    "station_name": "Brockholes Rail Station",
    "latitude": 53.5969856546,
    "longitude": -1.7696922549
  },
  {
    "3alpha": "BIA",
    "station_name": "Bishop Auckland Rail Station",
    "latitude": 54.6572030524,
    "longitude": -1.6777249795
  },
  {
    "3alpha": "BIB",
    "station_name": "Bishop's Lydeard",
    "latitude": 51.0545801757,
    "longitude": -3.194339982
  },
  {
    "3alpha": "BIC",
    "station_name": "Billericay Rail Station",
    "latitude": 51.6288849556,
    "longitude": 0.4186576571
  },
  {
    "3alpha": "BID",
    "station_name": "Bidston Rail Station",
    "latitude": 53.4091524654,
    "longitude": -3.0785590277
  },
  {
    "3alpha": "BIF",
    "station_name": "Barrow-in-Furness Rail Station",
    "latitude": 54.1190066162,
    "longitude": -3.2261172119
  },
  {
    "3alpha": "BIG",
    "station_name": "Billingshurst Rail Station",
    "latitude": 51.0151974096,
    "longitude": -0.4502767801
  },
  {
    "3alpha": "BIK",
    "station_name": "Birkbeck Rail Station",
    "latitude": 51.403888888,
    "longitude": -0.0557126082
  },
  {
    "3alpha": "BIL",
    "station_name": "Billingham Rail Station",
    "latitude": 54.6056166679,
    "longitude": -1.2797344554
  },
  {
    "3alpha": "BIN",
    "station_name": "Bingham Rail Station",
    "latitude": 52.9542094023,
    "longitude": -0.9515394619
  },
  {
    "3alpha": "BIO",
    "station_name": "Baillieston Rail Station",
    "latitude": 55.8444952694,
    "longitude": -4.1136857366
  },
  {
    "3alpha": "BIP",
    "station_name": "Bishopstone Rail Station",
    "latitude": 50.7801363721,
    "longitude": 0.0827845347
  },
  {
    "3alpha": "BIS",
    "station_name": "Bishops Stortford Rail Station",
    "latitude": 51.8666972924,
    "longitude": 0.1649202653
  },
  {
    "3alpha": "BIT",
    "station_name": "Bicester Village Rail Station",
    "latitude": 51.8930294144,
    "longitude": -1.1487446761
  },
  {
    "3alpha": "BIW",
    "station_name": "Biggleswade Rail Station",
    "latitude": 52.0846893974,
    "longitude": -0.2611631855
  },
  {
    "3alpha": "BIY",
    "station_name": "Bingley Rail Station",
    "latitude": 53.8486270204,
    "longitude": -1.8373250124
  },
  {
    "3alpha": "BKA",
    "station_name": "Bookham Rail Station",
    "latitude": 51.2887348796,
    "longitude": -0.3839979684
  },
  {
    "3alpha": "BKC",
    "station_name": "Birkenhead Central Rail Station",
    "latitude": 53.388328806,
    "longitude": -3.0208206224
  },
  {
    "3alpha": "BKD",
    "station_name": "Blakedown Rail Station",
    "latitude": 52.406413288,
    "longitude": -2.1768606091
  },
  {
    "3alpha": "BKG",
    "station_name": "Barking Rail Station",
    "latitude": 51.5394940483,
    "longitude": 0.0809293557
  },
  {
    "3alpha": "BKH",
    "station_name": "Blackheath Rail Station",
    "latitude": 51.4657947771,
    "longitude": 0.0088974464
  },
  {
    "3alpha": "BKJ",
    "station_name": "Beckenham Junction Rail Station",
    "latitude": 51.4111710618,
    "longitude": -0.0259963666
  },
  {
    "3alpha": "BKL",
    "station_name": "Bickley Rail Station",
    "latitude": 51.4001025009,
    "longitude": 0.0452659962
  },
  {
    "3alpha": "BKM",
    "station_name": "Berkhamsted Rail Station",
    "latitude": 51.7631393379,
    "longitude": -0.5619899853
  },
  {
    "3alpha": "BKN",
    "station_name": "Birkenhead North Rail Station",
    "latitude": 53.4044504204,
    "longitude": -3.057532076
  },
  {
    "3alpha": "BKO",
    "station_name": "Brookwood Rail Station",
    "latitude": 51.3037544754,
    "longitude": -0.6357308777
  },
  {
    "3alpha": "BKP",
    "station_name": "Birkenhead Park Rail Station",
    "latitude": 53.3974209727,
    "longitude": -3.039100208
  },
  {
    "3alpha": "BKQ",
    "station_name": "Birkenhead Hamilton Square Rail Station",
    "latitude": 53.3947090805,
    "longitude": -3.013679563
  },
  {
    "3alpha": "BKR",
    "station_name": "Blackridge Rail Station",
    "latitude": 55.8842459211,
    "longitude": -3.7507875146
  },
  {
    "3alpha": "BKS",
    "station_name": "Bekesbourne Rail Station",
    "latitude": 51.2613599688,
    "longitude": 1.136737067
  },
  {
    "3alpha": "BKT",
    "station_name": "Blake Street Rail Station",
    "latitude": 52.6048991066,
    "longitude": -1.8449076544
  },
  {
    "3alpha": "BKW",
    "station_name": "Berkswell Rail Station",
    "latitude": 52.3958946388,
    "longitude": -1.6428309089
  },
  {
    "3alpha": "BLA",
    "station_name": "Blair Atholl Rail Station",
    "latitude": 56.7655325077,
    "longitude": -3.8502251597
  },
  {
    "3alpha": "BLB",
    "station_name": "Battlesbridge Rail Station",
    "latitude": 51.6248280358,
    "longitude": 0.5653129218
  },
  {
    "3alpha": "BLD",
    "station_name": "Baildon Rail Station",
    "latitude": 53.8502374199,
    "longitude": -1.7536396791
  },
  {
    "3alpha": "BLE",
    "station_name": "Bramley (West Yorks) Rail Station",
    "latitude": 53.8053627078,
    "longitude": -1.6372110715
  },
  {
    "3alpha": "BLG",
    "station_name": "Bellgrove Rail Station",
    "latitude": 55.8566980297,
    "longitude": -4.2243600625
  },
  {
    "3alpha": "BLH",
    "station_name": "Bellshill Rail Station",
    "latitude": 55.8170582892,
    "longitude": -4.0244880674
  },
  {
    "3alpha": "BLK",
    "station_name": "Blackrod Rail Station",
    "latitude": 53.5915357166,
    "longitude": -2.5695231754
  },
  {
    "3alpha": "BLL",
    "station_name": "Bardon Mill Rail Station",
    "latitude": 54.9744979891,
    "longitude": -2.346513133
  },
  {
    "3alpha": "BLM",
    "station_name": "Belmont Rail Station",
    "latitude": 51.3438116974,
    "longitude": -0.1988301486
  },
  {
    "3alpha": "BLN",
    "station_name": "Blundellsands & Crosby Rail Station",
    "latitude": 53.4876981044,
    "longitude": -3.0398576774
  },
  {
    "3alpha": "BLO",
    "station_name": "Blaydon Rail Station",
    "latitude": 54.9657939357,
    "longitude": -1.7125935978
  },
  {
    "3alpha": "BLP",
    "station_name": "Belper Rail Station",
    "latitude": 53.0237754008,
    "longitude": -1.482508538
  },
  {
    "3alpha": "BLT",
    "station_name": "Blantyre Rail Station",
    "latitude": 55.7973203505,
    "longitude": -4.0869580948
  },
  {
    "3alpha": "BLV",
    "station_name": "Belle Vue Rail Station",
    "latitude": 53.4623891164,
    "longitude": -2.1805056874
  },
  {
    "3alpha": "BLW",
    "station_name": "Bulwell Rail Station",
    "latitude": 52.9997132956,
    "longitude": -1.1962272378
  },
  {
    "3alpha": "BLX",
    "station_name": "Bloxwich Rail Station",
    "latitude": 52.6182145823,
    "longitude": -2.0114721566
  },
  {
    "3alpha": "BLY",
    "station_name": "Bletchley Rail Station",
    "latitude": 51.9953423523,
    "longitude": -0.7362994344
  },
  {
    "3alpha": "BMB",
    "station_name": "Bamber Bridge Rail Station",
    "latitude": 53.7268807835,
    "longitude": -2.6607719493
  },
  {
    "3alpha": "BMC",
    "station_name": "Bromley Cross Rail Station",
    "latitude": 53.61405521,
    "longitude": -2.4108970227
  },
  {
    "3alpha": "BMD",
    "station_name": "Brimsdown Rail Station",
    "latitude": 51.6555835568,
    "longitude": -0.0307911888
  },
  {
    "3alpha": "BME",
    "station_name": "Broome Rail Station",
    "latitude": 52.4227839595,
    "longitude": -2.8852059507
  },
  {
    "3alpha": "BMF",
    "station_name": "Broomfleet Rail Station",
    "latitude": 53.7402272872,
    "longitude": -0.6718345795
  },
  {
    "3alpha": "BMG",
    "station_name": "Barming Rail Station",
    "latitude": 51.2848921433,
    "longitude": 0.4789874974
  },
  {
    "3alpha": "BMH",
    "station_name": "Bournemouth Rail Station",
    "latitude": 50.7272603225,
    "longitude": -1.8644946471
  },
  {
    "3alpha": "BML",
    "station_name": "Bramhall Rail Station",
    "latitude": 53.3606279318,
    "longitude": -2.1635920263
  },
  {
    "3alpha": "BMN",
    "station_name": "Bromley North Rail Station",
    "latitude": 51.4083255508,
    "longitude": 0.0170184004
  },
  {
    "3alpha": "BMO",
    "station_name": "Birmingham Moor Street Rail Station",
    "latitude": 52.4790920668,
    "longitude": -1.8924677323
  },
  {
    "3alpha": "BMP",
    "station_name": "Brampton (Cumbria) Rail Station",
    "latitude": 54.9323952275,
    "longitude": -2.7029523076
  },
  {
    "3alpha": "BMR",
    "station_name": "Bromborough Rake Rail Station",
    "latitude": 53.3299208626,
    "longitude": -2.9894688327
  },
  {
    "3alpha": "BMS",
    "station_name": "Bromley South Rail Station",
    "latitude": 51.3999742022,
    "longitude": 0.0173696569
  },
  {
    "3alpha": "BMT",
    "station_name": "Bedminster Rail Station",
    "latitude": 51.4400845068,
    "longitude": -2.5941516846
  },
  {
    "3alpha": "BMV",
    "station_name": "Bromsgrove Rail Station",
    "latitude": 52.3222981835,
    "longitude": -2.0473389281
  },
  {
    "3alpha": "BMY",
    "station_name": "Bramley (Hants) Rail Station",
    "latitude": 51.330292014,
    "longitude": -1.0609834929
  },
  {
    "3alpha": "BNA",
    "station_name": "Burnage Rail Station",
    "latitude": 53.4211811715,
    "longitude": -2.2156768396
  },
  {
    "3alpha": "BNC",
    "station_name": "Burnley Central Rail Station",
    "latitude": 53.7935247085,
    "longitude": -2.2449718815
  },
  {
    "3alpha": "BND",
    "station_name": "Brandon Rail Station",
    "latitude": 52.4540242165,
    "longitude": 0.6247556786
  },
  {
    "3alpha": "BNE",
    "station_name": "Bourne End Rail Station",
    "latitude": 51.5771193996,
    "longitude": -0.7104544193
  },
  {
    "3alpha": "BNF",
    "station_name": "Briton Ferry Rail Station",
    "latitude": 51.6378987804,
    "longitude": -3.8192683057
  },
  {
    "3alpha": "BNG",
    "station_name": "Bangor (Gwynedd) Rail Station",
    "latitude": 53.2222979654,
    "longitude": -4.1358869294
  },
  {
    "3alpha": "BNH",
    "station_name": "Barnehurst Rail Station",
    "latitude": 51.4649576152,
    "longitude": 0.1596730747
  },
  {
    "3alpha": "BNI",
    "station_name": "Barnes Bridge Rail Station",
    "latitude": 51.4720070868,
    "longitude": -0.2526072102
  },
  {
    "3alpha": "BNL",
    "station_name": "Barnhill Rail Station",
    "latitude": 55.8774834443,
    "longitude": -4.2229911506
  },
  {
    "3alpha": "BNM",
    "station_name": "Burnham (Berks) Rail Station",
    "latitude": 51.5235064374,
    "longitude": -0.6463561439
  },
  {
    "3alpha": "BNP",
    "station_name": "Barnstaple Rail Station",
    "latitude": 51.0739644921,
    "longitude": -4.0631402025
  },
  {
    "3alpha": "BNR",
    "station_name": "Brockley Whins Rail Station",
    "latitude": 54.9595502728,
    "longitude": -1.4613667215
  },
  {
    "3alpha": "BNS",
    "station_name": "Barnes Rail Station",
    "latitude": 51.4670846365,
    "longitude": -0.2421410454
  },
  {
    "3alpha": "BNT",
    "station_name": "Brinnington Rail Station",
    "latitude": 53.432131208,
    "longitude": -2.1351183485
  },
  {
    "3alpha": "BNV",
    "station_name": "Banavie Rail Station",
    "latitude": 56.8432899877,
    "longitude": -5.0954121623
  },
  {
    "3alpha": "BNW",
    "station_name": "Bootle New Strand Rail Station",
    "latitude": 53.4534030856,
    "longitude": -2.9947465497
  },
  {
    "3alpha": "BNY",
    "station_name": "Barnsley Rail Station",
    "latitude": 53.5543175422,
    "longitude": -1.47716617
  },
  {
    "3alpha": "BOA",
    "station_name": "Bradford-on-Avon Rail Station",
    "latitude": 51.3449090983,
    "longitude": -2.2523240424
  },
  {
    "3alpha": "BOC",
    "station_name": "Bootle (Cumbria) Rail Station",
    "latitude": 54.291308954,
    "longitude": -3.3938621381
  },
  {
    "3alpha": "BOD",
    "station_name": "Bodmin Parkway Rail Station",
    "latitude": 50.4458496871,
    "longitude": -4.6629674421
  },
  {
    "3alpha": "BOE",
    "station_name": "Botley Rail Station",
    "latitude": 50.9164438022,
    "longitude": -1.2592242694
  },
  {
    "3alpha": "BOG",
    "station_name": "Bognor Regis Rail Station",
    "latitude": 50.786547177,
    "longitude": -0.6761573725
  },
  {
    "3alpha": "BOH",
    "station_name": "Bosham Rail Station",
    "latitude": 50.8427366135,
    "longitude": -0.8474129936
  },
  {
    "3alpha": "BOM",
    "station_name": "Bromborough Rail Station",
    "latitude": 53.321860927,
    "longitude": -2.9868952277
  },
  {
    "3alpha": "BON",
    "station_name": "Bolton Rail Station",
    "latitude": 53.5741575045,
    "longitude": -2.425822783
  },
  {
    "3alpha": "BOP",
    "station_name": "Bowes Park Rail Station",
    "latitude": 51.6070128955,
    "longitude": -0.1205568702
  },
  {
    "3alpha": "BOR",
    "station_name": "Bodorgan Rail Station",
    "latitude": 53.2043181126,
    "longitude": -4.4180098996
  },
  {
    "3alpha": "BOT",
    "station_name": "Bootle Oriel Road Rail Station",
    "latitude": 53.4466353518,
    "longitude": -2.9957327823
  },
  {
    "3alpha": "BPB",
    "station_name": "Blackpool Pleasure Beach Rail Station",
    "latitude": 53.7879651191,
    "longitude": -3.0538730548
  },
  {
    "3alpha": "BPC",
    "station_name": "Penychain Rail Station",
    "latitude": 52.9028982685,
    "longitude": -4.3387298378
  },
  {
    "3alpha": "BPK",
    "station_name": "Brookmans Park Rail Station",
    "latitude": 51.7210644329,
    "longitude": -0.204525873
  },
  {
    "3alpha": "BPN",
    "station_name": "Blackpool North Rail Station",
    "latitude": 53.8219272752,
    "longitude": -3.0492707494
  },
  {
    "3alpha": "BPS",
    "station_name": "Blackpool South Rail Station",
    "latitude": 53.7987134952,
    "longitude": -3.0489347667
  },
  {
    "3alpha": "BPT",
    "station_name": "Bishopton Rail Station",
    "latitude": 55.9022563659,
    "longitude": -4.5004702272
  },
  {
    "3alpha": "BPW",
    "station_name": "Bristol Parkway Rail Station",
    "latitude": 51.5137984154,
    "longitude": -2.5421644857
  },
  {
    "3alpha": "BRA",
    "station_name": "Brora Rail Station",
    "latitude": 58.012933425,
    "longitude": -3.8522865622
  },
  {
    "3alpha": "BRC",
    "station_name": "Breich Rail Station",
    "latitude": 55.8273074741,
    "longitude": -3.6681187271
  },
  {
    "3alpha": "BRE",
    "station_name": "Brentwood Rail Station",
    "latitude": 51.6136062194,
    "longitude": 0.2996132443
  },
  {
    "3alpha": "BRF",
    "station_name": "Brierfield Rail Station",
    "latitude": 53.8239929448,
    "longitude": -2.2364914709
  },
  {
    "3alpha": "BRG",
    "station_name": "Borough Green & Wrotham Rail Station",
    "latitude": 51.293215966,
    "longitude": 0.3062721999
  },
  {
    "3alpha": "BRH",
    "station_name": "Borth Rail Station",
    "latitude": 52.4910411643,
    "longitude": -4.0501863389
  },
  {
    "3alpha": "BRI",
    "station_name": "Bristol Temple Meads Rail Station",
    "latitude": 51.4491404983,
    "longitude": -2.5813170589
  },
  {
    "3alpha": "BRK",
    "station_name": "Berwick (Sussex) Rail Station",
    "latitude": 50.8403713146,
    "longitude": 0.1660450404
  },
  {
    "3alpha": "BRL",
    "station_name": "Barrhill Rail Station",
    "latitude": 55.0970097604,
    "longitude": -4.7817610115
  },
  {
    "3alpha": "BRM",
    "station_name": "Barmouth Rail Station",
    "latitude": 52.7229049113,
    "longitude": -4.0566037471
  },
  {
    "3alpha": "BRN",
    "station_name": "Bearsden Rail Station",
    "latitude": 55.9171219632,
    "longitude": -4.3320048257
  },
  {
    "3alpha": "BRO",
    "station_name": "Bridge of Orchy Rail Station",
    "latitude": 56.5158519882,
    "longitude": -4.7629778286
  },
  {
    "3alpha": "BRP",
    "station_name": "Brampton (Suffolk) Rail Station",
    "latitude": 52.39545585,
    "longitude": 1.5438396721
  },
  {
    "3alpha": "BRR",
    "station_name": "Barrhead Rail Station",
    "latitude": 55.8037470316,
    "longitude": -4.3972682443
  },
  {
    "3alpha": "BRS",
    "station_name": "Berrylands Rail Station",
    "latitude": 51.3990426839,
    "longitude": -0.280691098
  },
  {
    "3alpha": "BRT",
    "station_name": "Barlaston Rail Station",
    "latitude": 52.9428868109,
    "longitude": -2.1681101939
  },
  {
    "3alpha": "BRU",
    "station_name": "Bruton Rail Station",
    "latitude": 51.1116312549,
    "longitude": -2.4470735628
  },
  {
    "3alpha": "BRV",
    "station_name": "Bournville Rail Station",
    "latitude": 52.4269759491,
    "longitude": -1.9264177275
  },
  {
    "3alpha": "BRW",
    "station_name": "Brunswick Rail Station",
    "latitude": 53.3832558566,
    "longitude": -2.9760770621
  },
  {
    "3alpha": "BRX",
    "station_name": "Brixton Rail Station",
    "latitude": 51.4632979174,
    "longitude": -0.1141578263
  },
  {
    "3alpha": "BRY",
    "station_name": "Barry Rail Station",
    "latitude": 51.3967799856,
    "longitude": -3.2849950221
  },
  {
    "3alpha": "BSB",
    "station_name": "Bleasby Rail Station",
    "latitude": 53.0413834346,
    "longitude": -0.9436832322
  },
  {
    "3alpha": "BSC",
    "station_name": "Bescot Stadium Rail Station",
    "latitude": 52.5631069514,
    "longitude": -1.9911001339
  },
  {
    "3alpha": "BSD",
    "station_name": "Bearsted Rail Station",
    "latitude": 51.2758186317,
    "longitude": 0.5776101903
  },
  {
    "3alpha": "BSE",
    "station_name": "Bury St Edmunds Rail Station",
    "latitude": 52.2537779145,
    "longitude": 0.7133353034
  },
  {
    "3alpha": "BSH",
    "station_name": "Bushey Rail Station",
    "latitude": 51.6457542219,
    "longitude": -0.3852982939
  },
  {
    "3alpha": "BSI",
    "station_name": "Balmossie Rail Station",
    "latitude": 56.4745544268,
    "longitude": -2.8389594192
  },
  {
    "3alpha": "BSJ",
    "station_name": "Bedford St Johns Rail Station",
    "latitude": 52.1294885146,
    "longitude": -0.4674793726
  },
  {
    "3alpha": "BSK",
    "station_name": "Basingstoke Rail Station",
    "latitude": 51.2683550841,
    "longitude": -1.0872452751
  },
  {
    "3alpha": "BSL",
    "station_name": "Beasdale Rail Station",
    "latitude": 56.8995320852,
    "longitude": -5.7637827088
  },
  {
    "3alpha": "BSM",
    "station_name": "Branksome Rail Station",
    "latitude": 50.7269511745,
    "longitude": -1.9197490477
  },
  {
    "3alpha": "BSN",
    "station_name": "Boston Rail Station",
    "latitude": 52.9781123717,
    "longitude": -0.0309954737
  },
  {
    "3alpha": "BSO",
    "station_name": "Basildon Rail Station",
    "latitude": 51.5681072863,
    "longitude": 0.4568185797
  },
  {
    "3alpha": "BSP",
    "station_name": "Brondesbury Park Rail Station",
    "latitude": 51.5406994758,
    "longitude": -0.2101030164
  },
  {
    "3alpha": "BSR",
    "station_name": "Broadstairs Rail Station",
    "latitude": 51.3606801474,
    "longitude": 1.4335860392
  },
  {
    "3alpha": "BSS",
    "station_name": "Barassie Rail Station",
    "latitude": 55.5610564283,
    "longitude": -4.6511181093
  },
  {
    "3alpha": "BSU",
    "station_name": "Brunstane Rail Station",
    "latitude": 55.9425045311,
    "longitude": -3.1009897555
  },
  {
    "3alpha": "BSV",
    "station_name": "Buckshaw Parkway Rail Station",
    "latitude": 53.6733558277,
    "longitude": -2.6608267264
  },
  {
    "3alpha": "BSW",
    "station_name": "Birmingham Snow Hill Rail Station",
    "latitude": 52.4833681846,
    "longitude": -1.89908361
  },
  {
    "3alpha": "BSY",
    "station_name": "Brondesbury Rail Station",
    "latitude": 51.5451661494,
    "longitude": -0.2022838772
  },
  {
    "3alpha": "BTB",
    "station_name": "Barnetby Rail Station",
    "latitude": 53.5751404569,
    "longitude": -0.4096836565
  },
  {
    "3alpha": "BTD",
    "station_name": "Bolton-Upon-Dearne Rail Station",
    "latitude": 53.5189640059,
    "longitude": -1.3115478698
  },
  {
    "3alpha": "BTE",
    "station_name": "Bitterne Rail Station",
    "latitude": 50.9182096759,
    "longitude": -1.3769901266
  },
  {
    "3alpha": "BTF",
    "station_name": "Bottesford Rail Station",
    "latitude": 52.944634247,
    "longitude": -0.7948377662
  },
  {
    "3alpha": "BTG",
    "station_name": "Barnt Green Rail Station",
    "latitude": 52.3611012481,
    "longitude": -1.9924584823
  },
  {
    "3alpha": "BTH",
    "station_name": "Bath Spa Rail Station",
    "latitude": 51.3776813346,
    "longitude": -2.3570165586
  },
  {
    "3alpha": "BTL",
    "station_name": "Batley Rail Station",
    "latitude": 53.7099546488,
    "longitude": -1.6229560553
  },
  {
    "3alpha": "BTN",
    "station_name": "Brighton Rail Station",
    "latitude": 50.8289969623,
    "longitude": -0.1412525289
  },
  {
    "3alpha": "BTO",
    "station_name": "Betchworth Rail Station",
    "latitude": 51.2481856234,
    "longitude": -0.2669489143
  },
  {
    "3alpha": "BTP",
    "station_name": "Braintree Freeport Rail Station",
    "latitude": 51.86942396,
    "longitude": 0.5684631055
  },
  {
    "3alpha": "BTR",
    "station_name": "Braintree Rail Station",
    "latitude": 51.8753991861,
    "longitude": 0.5567148512
  },
  {
    "3alpha": "BTS",
    "station_name": "Burntisland Rail Station",
    "latitude": 56.0570735491,
    "longitude": -3.233198596
  },
  {
    "3alpha": "BTT",
    "station_name": "Battersby Rail Station",
    "latitude": 54.4576909817,
    "longitude": -1.092985447
  },
  {
    "3alpha": "BTY",
    "station_name": "Bentley (Hants) Rail Station",
    "latitude": 51.1812286564,
    "longitude": -0.8681101444
  },
  {
    "3alpha": "BUB",
    "station_name": "Burnley Barracks Rail Station",
    "latitude": 53.7908906624,
    "longitude": -2.2580864157
  },
  {
    "3alpha": "BUC",
    "station_name": "Buckenham Rail Station",
    "latitude": 52.5977618232,
    "longitude": 1.4703489483
  },
  {
    "3alpha": "BUD",
    "station_name": "Burneside (Cumbria) Rail Station",
    "latitude": 54.3549872461,
    "longitude": -2.7666793226
  },
  {
    "3alpha": "BUE",
    "station_name": "Bures Rail Station",
    "latitude": 51.9711715742,
    "longitude": 0.7691763467
  },
  {
    "3alpha": "BUG",
    "station_name": "Burgess Hill Rail Station",
    "latitude": 50.9536493887,
    "longitude": -0.1273860328
  },
  {
    "3alpha": "BUH",
    "station_name": "Brough Rail Station",
    "latitude": 53.7269790626,
    "longitude": -0.5787296823
  },
  {
    "3alpha": "BUI",
    "station_name": "Burnside (Strathclyde) Rail Station",
    "latitude": 55.8169207887,
    "longitude": -4.2023757518
  },
  {
    "3alpha": "BUJ",
    "station_name": "Burton Joyce Rail Station",
    "latitude": 52.9834597732,
    "longitude": -1.0408745342
  },
  {
    "3alpha": "BUK",
    "station_name": "Bucknell Rail Station",
    "latitude": 52.3573903067,
    "longitude": -2.94737686
  },
  {
    "3alpha": "BUL",
    "station_name": "Butlers Lane Rail Station",
    "latitude": 52.5924838341,
    "longitude": -1.8380133232
  },
  {
    "3alpha": "BUO",
    "station_name": "Bursledon Rail Station",
    "latitude": 50.8836771224,
    "longitude": -1.3050217804
  },
  {
    "3alpha": "BUS",
    "station_name": "Busby Rail Station",
    "latitude": 55.7803335966,
    "longitude": -4.2621874207
  },
  {
    "3alpha": "BUT",
    "station_name": "Burton-on-Trent Rail Station",
    "latitude": 52.805831535,
    "longitude": -1.6424549107
  },
  {
    "3alpha": "BUU",
    "station_name": "Burnham-on-Crouch Rail Station",
    "latitude": 51.6336616952,
    "longitude": 0.8140576821
  },
  {
    "3alpha": "BUW",
    "station_name": "Burley-in-Wharfedale Rail Station",
    "latitude": 53.9081639278,
    "longitude": -1.7533757307
  },
  {
    "3alpha": "BUX",
    "station_name": "Buxton Rail Station",
    "latitude": 53.2607356445,
    "longitude": -1.9128621475
  },
  {
    "3alpha": "BUY",
    "station_name": "Burley Park Rail Station",
    "latitude": 53.8120445498,
    "longitude": -1.5777714582
  },
  {
    "3alpha": "BVD",
    "station_name": "Belvedere Rail Station",
    "latitude": 51.4921169254,
    "longitude": 0.1523141776
  },
  {
    "3alpha": "BWB",
    "station_name": "Bow Brickhill Rail Station",
    "latitude": 52.0043090172,
    "longitude": -0.6960564274
  },
  {
    "3alpha": "BWD",
    "station_name": "Birchwood Rail Station",
    "latitude": 53.4127333746,
    "longitude": -2.5253084603
  },
  {
    "3alpha": "BWG",
    "station_name": "Bowling Rail Station",
    "latitude": 55.9310714655,
    "longitude": -4.4938258606
  },
  {
    "3alpha": "BWK",
    "station_name": "Berwick-upon-Tweed Rail Station",
    "latitude": 55.774332462,
    "longitude": -2.0109833916
  },
  {
    "3alpha": "BWN",
    "station_name": "Bloxwich North Rail Station",
    "latitude": 52.6254506167,
    "longitude": -2.0176785833
  },
  {
    "3alpha": "BWO",
    "station_name": "Bricket Wood Rail Station",
    "latitude": 51.7054311593,
    "longitude": -0.3590920111
  },
  {
    "3alpha": "BWS",
    "station_name": "Barrow upon Soar Rail Station",
    "latitude": 52.7493534585,
    "longitude": -1.1448359281
  },
  {
    "3alpha": "BWT",
    "station_name": "Bridgwater Rail Station",
    "latitude": 51.1278501854,
    "longitude": -2.9904134747
  },
  {
    "3alpha": "BXB",
    "station_name": "Broxbourne Rail Station",
    "latitude": 51.746913795,
    "longitude": -0.0110606305
  },
  {
    "3alpha": "BXD",
    "station_name": "Buxted Rail Station",
    "latitude": 50.9900076084,
    "longitude": 0.1314658692
  },
  {
    "3alpha": "BXH",
    "station_name": "Bexleyheath Rail Station",
    "latitude": 51.4634986628,
    "longitude": 0.1337619475
  },
  {
    "3alpha": "BXW",
    "station_name": "Box Hill & Westhumble Rail Station",
    "latitude": 51.2540077838,
    "longitude": -0.3284670481
  },
  {
    "3alpha": "BXY",
    "station_name": "Bexley Rail Station",
    "latitude": 51.4402179279,
    "longitude": 0.1479285922
  },
  {
    "3alpha": "BYA",
    "station_name": "Berney Arms Rail Station",
    "latitude": 52.5898102913,
    "longitude": 1.6303988741
  },
  {
    "3alpha": "BYB",
    "station_name": "Blythe Bridge Rail Station",
    "latitude": 52.9681588029,
    "longitude": -2.0669597492
  },
  {
    "3alpha": "BYC",
    "station_name": "Betws-y-Coed Rail Station",
    "latitude": 53.0920807045,
    "longitude": -3.8008660334
  },
  {
    "3alpha": "BYD",
    "station_name": "Barry Docks Rail Station",
    "latitude": 51.4024388396,
    "longitude": -3.2607138987
  },
  {
    "3alpha": "BYE",
    "station_name": "Bynea Rail Station",
    "latitude": 51.6720355869,
    "longitude": -4.0989020803
  },
  {
    "3alpha": "BYF",
    "station_name": "Broughty Ferry Rail Station",
    "latitude": 56.467149407,
    "longitude": -2.8731557887
  },
  {
    "3alpha": "BYI",
    "station_name": "Barry Island Rail Station",
    "latitude": 51.3924107233,
    "longitude": -3.2733735249
  },
  {
    "3alpha": "BYK",
    "station_name": "Bentley (S Yorks) Rail Station",
    "latitude": 53.5439546043,
    "longitude": -1.1509511595
  },
  {
    "3alpha": "BYL",
    "station_name": "Barry Links Rail Station",
    "latitude": 56.4931375583,
    "longitude": -2.7454472508
  },
  {
    "3alpha": "BYM",
    "station_name": "Burnley Manchester Road Rail Station",
    "latitude": 53.7849780535,
    "longitude": -2.2488678001
  },
  {
    "3alpha": "BYN",
    "station_name": "Bryn Rail Station",
    "latitude": 53.4998801227,
    "longitude": -2.6472139369
  },
  {
    "3alpha": "BYS",
    "station_name": "Braystones Rail Station",
    "latitude": 54.4393680606,
    "longitude": -3.5418249064
  },
  {
    "3alpha": "CAA",
    "station_name": "Coventry Arena Rail Station",
    "latitude": 52.4477480204,
    "longitude": -1.4941167693
  },
  {
    "3alpha": "CAC",
    "station_name": "Caldercruix Rail Station",
    "latitude": 55.887937313,
    "longitude": -3.8877014781
  },
  {
    "3alpha": "CAD",
    "station_name": "Cadoxton Rail Station",
    "latitude": 51.4122775163,
    "longitude": -3.2489057172
  },
  {
    "3alpha": "CAG",
    "station_name": "Carrbridge Rail Station",
    "latitude": 57.2794851095,
    "longitude": -3.8282023232
  },
  {
    "3alpha": "CAK",
    "station_name": "Cark Rail Station",
    "latitude": 54.177962852,
    "longitude": -2.9740635997
  },
  {
    "3alpha": "CAM",
    "station_name": "Camberley Rail Station",
    "latitude": 51.3363253942,
    "longitude": -0.7442546332
  },
  {
    "3alpha": "CAN",
    "station_name": "Carnoustie Rail Station",
    "latitude": 56.5005520159,
    "longitude": -2.7066067008
  },
  {
    "3alpha": "CAO",
    "station_name": "Cannock Rail Station",
    "latitude": 52.6861755085,
    "longitude": -2.0221416067
  },
  {
    "3alpha": "CAR",
    "station_name": "Carlisle Rail Station",
    "latitude": 54.8906568723,
    "longitude": -2.9331955073
  },
  {
    "3alpha": "CAS",
    "station_name": "Castleton (Manchester) Rail Station",
    "latitude": 53.5918610828,
    "longitude": -2.1782323207
  },
  {
    "3alpha": "CAT",
    "station_name": "Caterham Rail Station",
    "latitude": 51.2821380427,
    "longitude": -0.0782806392
  },
  {
    "3alpha": "CAU",
    "station_name": "Causeland Rail Station",
    "latitude": 50.4056755023,
    "longitude": -4.466483549
  },
  {
    "3alpha": "CAY",
    "station_name": "Carntyne Rail Station",
    "latitude": 55.8548667252,
    "longitude": -4.178558829
  },
  {
    "3alpha": "CBB",
    "station_name": "Carbis Bay Rail Station",
    "latitude": 50.1970388168,
    "longitude": -5.4633147211
  },
  {
    "3alpha": "CBC",
    "station_name": "Coatbridge Central Rail Station",
    "latitude": 55.8624998584,
    "longitude": -4.0318858547
  },
  {
    "3alpha": "CBD",
    "station_name": "Conon Bridge Rail Station",
    "latitude": 57.5617327905,
    "longitude": -4.4404033769
  },
  {
    "3alpha": "CBE",
    "station_name": "Canterbury East Rail Station",
    "latitude": 51.2742704504,
    "longitude": 1.0759983241
  },
  {
    "3alpha": "CBG",
    "station_name": "Cambridge Rail Station",
    "latitude": 52.1940786826,
    "longitude": 0.1374844883
  },
  {
    "3alpha": "CBH",
    "station_name": "Cambridge Heath (London) Rail Station",
    "latitude": 51.5319721727,
    "longitude": -0.0572520963
  },
  {
    "3alpha": "CBK",
    "station_name": "Cranbrook Rail Station",
    "latitude": 50.7500793373,
    "longitude": -3.4204288894
  },
  {
    "3alpha": "CBL",
    "station_name": "Cambuslang Rail Station",
    "latitude": 55.8196005407,
    "longitude": -4.1729949447
  },
  {
    "3alpha": "CBN",
    "station_name": "Camborne Rail Station",
    "latitude": 50.210424474,
    "longitude": -5.2974601339
  },
  {
    "3alpha": "CBP",
    "station_name": "Castle Bar Park Rail Station",
    "latitude": 51.5229296496,
    "longitude": -0.3315265492
  },
  {
    "3alpha": "CBR",
    "station_name": "Cooksbridge Rail Station",
    "latitude": 50.9037495693,
    "longitude": -0.0091755079
  },
  {
    "3alpha": "CBS",
    "station_name": "Coatbridge Sunnyside Rail Station",
    "latitude": 55.8668282944,
    "longitude": -4.0282763675
  },
  {
    "3alpha": "CBW",
    "station_name": "Canterbury West Rail Station",
    "latitude": 51.284271981,
    "longitude": 1.0753330452
  },
  {
    "3alpha": "CBY",
    "station_name": "Charlbury Rail Station",
    "latitude": 51.8724337794,
    "longitude": -1.4896781604
  },
  {
    "3alpha": "CCC",
    "station_name": "Criccieth Rail Station",
    "latitude": 52.9184246922,
    "longitude": -4.2375196432
  },
  {
    "3alpha": "CCH",
    "station_name": "Chichester Rail Station",
    "latitude": 50.8320420668,
    "longitude": -0.7817301783
  },
  {
    "3alpha": "CCT",
    "station_name": "Cathcart Rail Station",
    "latitude": 55.8176625197,
    "longitude": -4.260522045
  },
  {
    "3alpha": "CDB",
    "station_name": "Cardiff Bay Rail Station",
    "latitude": 51.4671073886,
    "longitude": -3.1664118035
  },
  {
    "3alpha": "CDD",
    "station_name": "Cardenden Rail Station",
    "latitude": 56.1412469307,
    "longitude": -3.2616419946
  },
  {
    "3alpha": "CDF",
    "station_name": "Cardiff Central Rail Station",
    "latitude": 51.4760241554,
    "longitude": -3.1793104707
  },
  {
    "3alpha": "CDI",
    "station_name": "Crediton Rail Station",
    "latitude": 50.7832916037,
    "longitude": -3.6467942575
  },
  {
    "3alpha": "CDN",
    "station_name": "Coulsdon Town Rail Station",
    "latitude": 51.3220392402,
    "longitude": -0.1344387303
  },
  {
    "3alpha": "CDO",
    "station_name": "Cardonald Rail Station",
    "latitude": 55.8525617165,
    "longitude": -4.340677662
  },
  {
    "3alpha": "CDQ",
    "station_name": "Cardiff Queen Street Rail Station",
    "latitude": 51.4819604384,
    "longitude": -3.1701891748
  },
  {
    "3alpha": "CDR",
    "station_name": "Cardross Rail Station",
    "latitude": 55.9603705466,
    "longitude": -4.6530550015
  },
  {
    "3alpha": "CDS",
    "station_name": "Coulsdon South Rail Station",
    "latitude": 51.3158346141,
    "longitude": -0.1378616075
  },
  {
    "3alpha": "CDT",
    "station_name": "Caldicot Rail Station",
    "latitude": 51.5847886548,
    "longitude": -2.7605785503
  },
  {
    "3alpha": "CDU",
    "station_name": "Cam & Dursley Rail Station",
    "latitude": 51.7176208933,
    "longitude": -2.3590816591
  },
  {
    "3alpha": "CDY",
    "station_name": "Cartsdyke Rail Station",
    "latitude": 55.9422051727,
    "longitude": -4.7315711125
  },
  {
    "3alpha": "CEA",
    "station_name": "Cleland Rail Station",
    "latitude": 55.8046428518,
    "longitude": -3.9102338035
  },
  {
    "3alpha": "CED",
    "station_name": "Cheddington Rail Station",
    "latitude": 51.8579248983,
    "longitude": -0.6621263072
  },
  {
    "3alpha": "CEF",
    "station_name": "Chapel-en-le-Frith Rail Station",
    "latitude": 53.3122450065,
    "longitude": -1.9187614767
  },
  {
    "3alpha": "CEH",
    "station_name": "Coleshill Parkway Rail Station",
    "latitude": 52.5165405856,
    "longitude": -1.7081695542
  },
  {
    "3alpha": "CEL",
    "station_name": "Chelford Rail Station",
    "latitude": 53.270324898,
    "longitude": -2.2805759167
  },
  {
    "3alpha": "CES",
    "station_name": "Cressing Rail Station",
    "latitude": 51.8523442178,
    "longitude": 0.5779891355
  },
  {
    "3alpha": "CET",
    "station_name": "Colchester Town Rail Station",
    "latitude": 51.8864651647,
    "longitude": 0.904792312
  },
  {
    "3alpha": "CEY",
    "station_name": "Cononley Rail Station",
    "latitude": 53.917582567,
    "longitude": -2.012071028
  },
  {
    "3alpha": "CFB",
    "station_name": "Catford Bridge Rail Station",
    "latitude": 51.4447386824,
    "longitude": -0.0247654501
  },
  {
    "3alpha": "CFD",
    "station_name": "Castleford Rail Station",
    "latitude": 53.7240933891,
    "longitude": -1.3546560801
  },
  {
    "3alpha": "CFF",
    "station_name": "Croftfoot Rail Station",
    "latitude": 55.818250801,
    "longitude": -4.2283107571
  },
  {
    "3alpha": "CFH",
    "station_name": "Chafford Hundred Rail Station",
    "latitude": 51.4855557794,
    "longitude": 0.2874752389
  },
  {
    "3alpha": "CFL",
    "station_name": "Crossflatts Rail Station",
    "latitude": 53.8584785,
    "longitude": -1.8448891769
  },
  {
    "3alpha": "CFN",
    "station_name": "Clifton Down Rail Station",
    "latitude": 51.4645414825,
    "longitude": -2.6117434096
  },
  {
    "3alpha": "CFO",
    "station_name": "Chalfont & Latimer Rail Station",
    "latitude": 51.6681107756,
    "longitude": -0.5605042796
  },
  {
    "3alpha": "CFR",
    "station_name": "Chandlers Ford Rail Station",
    "latitude": 50.9836745047,
    "longitude": -1.3851600502
  },
  {
    "3alpha": "CFT",
    "station_name": "Crofton Park Rail Station",
    "latitude": 51.45518736,
    "longitude": -0.036477467
  },
  {
    "3alpha": "CGD",
    "station_name": "Craigendoran Rail Station",
    "latitude": 55.9947875724,
    "longitude": -4.7112248712
  },
  {
    "3alpha": "CGM",
    "station_name": "Cottingham Rail Station",
    "latitude": 53.7816677653,
    "longitude": -0.4064399418
  },
  {
    "3alpha": "CGN",
    "station_name": "Cogan Rail Station",
    "latitude": 51.4459907902,
    "longitude": -3.189098989
  },
  {
    "3alpha": "CGW",
    "station_name": "Caergwrle Rail Station",
    "latitude": 53.1078775755,
    "longitude": -3.0329132338
  },
  {
    "3alpha": "CHC",
    "station_name": "Charing Cross (Glasgow) Rail Station",
    "latitude": 55.8646752269,
    "longitude": -4.2698055885
  },
  {
    "3alpha": "CHD",
    "station_name": "Chesterfield Rail Station",
    "latitude": 53.2382369384,
    "longitude": -1.4201139064
  },
  {
    "3alpha": "CHE",
    "station_name": "Cheam Rail Station",
    "latitude": 51.3554760901,
    "longitude": -0.2141426137
  },
  {
    "3alpha": "CHF",
    "station_name": "Church Fenton Rail Station",
    "latitude": 53.826617281,
    "longitude": -1.227593241
  },
  {
    "3alpha": "CHG",
    "station_name": "Charing (Kent) Rail Station",
    "latitude": 51.2080968918,
    "longitude": 0.790361474
  },
  {
    "3alpha": "CHH",
    "station_name": "Christs Hospital Rail Station",
    "latitude": 51.0506799602,
    "longitude": -0.3635305612
  },
  {
    "3alpha": "CHI",
    "station_name": "Chingford Rail Station",
    "latitude": 51.6330861875,
    "longitude": 0.0099231874
  },
  {
    "3alpha": "CHK",
    "station_name": "Chiswick Rail Station",
    "latitude": 51.4811352623,
    "longitude": -0.2678126102
  },
  {
    "3alpha": "CHL",
    "station_name": "Chilworth Rail Station",
    "latitude": 51.2152082426,
    "longitude": -0.5248019553
  },
  {
    "3alpha": "CHM",
    "station_name": "Chelmsford Rail Station",
    "latitude": 51.736377313,
    "longitude": 0.4685976033
  },
  {
    "3alpha": "CHN",
    "station_name": "Cheshunt Rail Station",
    "latitude": 51.7028782333,
    "longitude": -0.0239334005
  },
  {
    "3alpha": "CHO",
    "station_name": "Cholsey Rail Station",
    "latitude": 51.5702030857,
    "longitude": -1.1580033162
  },
  {
    "3alpha": "CHP",
    "station_name": "Chipstead Rail Station",
    "latitude": 51.3092732695,
    "longitude": -0.1694772828
  },
  {
    "3alpha": "CHR",
    "station_name": "Christchurch Rail Station",
    "latitude": 50.7382022761,
    "longitude": -1.7845391826
  },
  {
    "3alpha": "CHT",
    "station_name": "Chathill Rail Station",
    "latitude": 55.5367311282,
    "longitude": -1.7063916064
  },
  {
    "3alpha": "CHU",
    "station_name": "Cheadle Hulme Rail Station",
    "latitude": 53.3759438577,
    "longitude": -2.1883016906
  },
  {
    "3alpha": "CHW",
    "station_name": "Chalkwell Rail Station",
    "latitude": 51.5387210852,
    "longitude": 0.6706212378
  },
  {
    "3alpha": "CHX",
    "station_name": "London Charing Cross Rail Station",
    "latitude": 51.5080271291,
    "longitude": -0.124776951
  },
  {
    "3alpha": "CHY",
    "station_name": "Chertsey Rail Station",
    "latitude": 51.3870662195,
    "longitude": -0.5092980361
  },
  {
    "3alpha": "CIL",
    "station_name": "Chilham Rail Station",
    "latitude": 51.244611699,
    "longitude": 0.9759253356
  },
  {
    "3alpha": "CIM",
    "station_name": "Cilmeri Rail Station",
    "latitude": 52.1505372986,
    "longitude": -3.456549557
  },
  {
    "3alpha": "CIR",
    "station_name": "Caledonian Road & Barnsbury Rail Station",
    "latitude": 51.5430414168,
    "longitude": -0.1167032568
  },
  {
    "3alpha": "CIT",
    "station_name": "Chislehurst Rail Station",
    "latitude": 51.4055548954,
    "longitude": 0.0574432034
  },
  {
    "3alpha": "CKH",
    "station_name": "Corkerhill Rail Station",
    "latitude": 55.8374943521,
    "longitude": -4.3342780321
  },
  {
    "3alpha": "CKL",
    "station_name": "Corkickle Rail Station",
    "latitude": 54.5416855173,
    "longitude": -3.5821649914
  },
  {
    "3alpha": "CKN",
    "station_name": "Crewkerne Rail Station",
    "latitude": 50.8735260536,
    "longitude": -2.7784973275
  },
  {
    "3alpha": "CKS",
    "station_name": "Clarkston Rail Station",
    "latitude": 55.7893425756,
    "longitude": -4.2756304312
  },
  {
    "3alpha": "CKT",
    "station_name": "Crookston Rail Station",
    "latitude": 55.842306531,
    "longitude": -4.3646599927
  },
  {
    "3alpha": "CKY",
    "station_name": "Crosskeys Rail Station",
    "latitude": 51.6209031401,
    "longitude": -3.1261795275
  },
  {
    "3alpha": "CLA",
    "station_name": "Clandon Rail Station",
    "latitude": 51.2640008411,
    "longitude": -0.5027439883
  },
  {
    "3alpha": "CLC",
    "station_name": "Castle Cary Rail Station",
    "latitude": 51.0998071422,
    "longitude": -2.5227962269
  },
  {
    "3alpha": "CLD",
    "station_name": "Chelsfield Rail Station",
    "latitude": 51.3562553945,
    "longitude": 0.109096599
  },
  {
    "3alpha": "CLE",
    "station_name": "Cleethorpes Rail Station",
    "latitude": 53.5619299115,
    "longitude": -0.0292269788
  },
  {
    "3alpha": "CLG",
    "station_name": "Claygate Rail Station",
    "latitude": 51.3612107148,
    "longitude": -0.3482245539
  },
  {
    "3alpha": "CLH",
    "station_name": "Clitheroe Rail Station",
    "latitude": 53.8734784154,
    "longitude": -2.3943371754
  },
  {
    "3alpha": "CLI",
    "station_name": "Clifton (Manchester) Rail Station",
    "latitude": 53.5225049162,
    "longitude": -2.3147448248
  },
  {
    "3alpha": "CLJ",
    "station_name": "Clapham Junction Rail Station",
    "latitude": 51.4641869937,
    "longitude": -0.1702686508
  },
  {
    "3alpha": "CLK",
    "station_name": "Clock House Rail Station",
    "latitude": 51.4085837591,
    "longitude": -0.0406309221
  },
  {
    "3alpha": "CLL",
    "station_name": "Collington Rail Station",
    "latitude": 50.8392826491,
    "longitude": 0.4578912206
  },
  {
    "3alpha": "CLM",
    "station_name": "Collingham Rail Station",
    "latitude": 53.1441054305,
    "longitude": -0.7503911592
  },
  {
    "3alpha": "CLN",
    "station_name": "Chapeltown Rail Station",
    "latitude": 53.46235275,
    "longitude": -1.4662753767
  },
  {
    "3alpha": "CLP",
    "station_name": "Clapham High Street Rail Station",
    "latitude": 51.4654799498,
    "longitude": -0.1324962988
  },
  {
    "3alpha": "CLR",
    "station_name": "Clarbeston Road Rail Station",
    "latitude": 51.8516764519,
    "longitude": -4.883577935
  },
  {
    "3alpha": "CLS",
    "station_name": "Chester-le-Street Rail Station",
    "latitude": 54.8546014236,
    "longitude": -1.5780279033
  },
  {
    "3alpha": "CLT",
    "station_name": "Clacton-on-Sea Rail Station",
    "latitude": 51.7940121532,
    "longitude": 1.1541237294
  },
  {
    "3alpha": "CLU",
    "station_name": "Carluke Rail Station",
    "latitude": 55.7312612023,
    "longitude": -3.8489142324
  },
  {
    "3alpha": "CLV",
    "station_name": "Claverdon Rail Station",
    "latitude": 52.2771032987,
    "longitude": -1.696549552
  },
  {
    "3alpha": "CLW",
    "station_name": "Chorleywood Rail Station",
    "latitude": 51.6542505776,
    "longitude": -0.5182984244
  },
  {
    "3alpha": "CLY",
    "station_name": "Chinley Rail Station",
    "latitude": 53.3403042037,
    "longitude": -1.9439397765
  },
  {
    "3alpha": "CMB",
    "station_name": "Cambridge North Rail Station",
    "latitude": 52.2244936969,
    "longitude": 0.158507305
  },
  {
    "3alpha": "CMD",
    "station_name": "Camden Road Rail Station",
    "latitude": 51.5417913143,
    "longitude": -0.1386752331
  },
  {
    "3alpha": "CME",
    "station_name": "Combe (Oxon) Rail Station",
    "latitude": 51.8325979785,
    "longitude": -1.3940563489
  },
  {
    "3alpha": "CMF",
    "station_name": "Cromford Rail Station",
    "latitude": 53.1129487944,
    "longitude": -1.5491593967
  },
  {
    "3alpha": "CMH",
    "station_name": "Cwmbach Rail Station",
    "latitude": 51.7019306049,
    "longitude": -3.4137347518
  },
  {
    "3alpha": "CML",
    "station_name": "Carmyle Rail Station",
    "latitude": 55.8343311624,
    "longitude": -4.1581669693
  },
  {
    "3alpha": "CMN",
    "station_name": "Carmarthen Rail Station",
    "latitude": 51.8533597764,
    "longitude": -4.3059837569
  },
  {
    "3alpha": "CMO",
    "station_name": "Camelon Rail Station",
    "latitude": 56.0060850872,
    "longitude": -3.8175985504
  },
  {
    "3alpha": "CMR",
    "station_name": "Cromer Rail Station",
    "latitude": 52.9301115682,
    "longitude": 1.2928430662
  },
  {
    "3alpha": "CMY",
    "station_name": "Crossmyloof Rail Station",
    "latitude": 55.8339394759,
    "longitude": -4.2843030651
  },
  {
    "3alpha": "CNE",
    "station_name": "Colne Rail Station",
    "latitude": 53.854755007,
    "longitude": -2.1818613773
  },
  {
    "3alpha": "CNF",
    "station_name": "Carnforth Rail Station",
    "latitude": 54.1296866595,
    "longitude": -2.7712312791
  },
  {
    "3alpha": "CNG",
    "station_name": "Congleton Rail Station",
    "latitude": 53.1578702503,
    "longitude": -2.1925793889
  },
  {
    "3alpha": "CNL",
    "station_name": "Canley Rail Station",
    "latitude": 52.3992554076,
    "longitude": -1.5475652767
  },
  {
    "3alpha": "CNM",
    "station_name": "Cheltenham Spa Rail Station",
    "latitude": 51.8974028753,
    "longitude": -2.0996135055
  },
  {
    "3alpha": "CNN",
    "station_name": "Canonbury Rail Station",
    "latitude": 51.5487325338,
    "longitude": -0.09216443
  },
  {
    "3alpha": "CNO",
    "station_name": "Chetnole Rail Station",
    "latitude": 50.8663529505,
    "longitude": -2.5729267275
  },
  {
    "3alpha": "CNP",
    "station_name": "Conway Park Rail Station",
    "latitude": 53.3933739019,
    "longitude": -3.0226705989
  },
  {
    "3alpha": "CNR",
    "station_name": "Crianlarich Rail Station",
    "latitude": 56.3904637247,
    "longitude": -4.6184189492
  },
  {
    "3alpha": "CNS",
    "station_name": "Conisbrough Rail Station",
    "latitude": 53.4893269216,
    "longitude": -1.2343330775
  },
  {
    "3alpha": "CNW",
    "station_name": "Conwy Rail Station",
    "latitude": 53.2801164248,
    "longitude": -3.8305284521
  },
  {
    "3alpha": "CNY",
    "station_name": "Cantley Rail Station",
    "latitude": 52.5787715007,
    "longitude": 1.5134359903
  },
  {
    "3alpha": "COA",
    "station_name": "Coatdyke Rail Station",
    "latitude": 55.8643346399,
    "longitude": -4.0049736959
  },
  {
    "3alpha": "COB",
    "station_name": "Cooden Beach Rail Station",
    "latitude": 50.8333660029,
    "longitude": 0.4268882942
  },
  {
    "3alpha": "COE",
    "station_name": "Coombe Junction Halt (Rail Station)",
    "latitude": 50.4459059035,
    "longitude": -4.4818867991
  },
  {
    "3alpha": "COH",
    "station_name": "Crowborough Rail Station",
    "latitude": 51.0463770048,
    "longitude": 0.1880407337
  },
  {
    "3alpha": "COI",
    "station_name": "Crosshill Rail Station",
    "latitude": 55.8332791971,
    "longitude": -4.2567970862
  },
  {
    "3alpha": "COL",
    "station_name": "Colchester Rail Station",
    "latitude": 51.9007230246,
    "longitude": 0.8926284517
  },
  {
    "3alpha": "COM",
    "station_name": "Commondale Rail Station",
    "latitude": 54.4812856119,
    "longitude": -0.9751641461
  },
  {
    "3alpha": "CON",
    "station_name": "Connel Ferry Rail Station",
    "latitude": 56.45233723,
    "longitude": -5.3854201352
  },
  {
    "3alpha": "COO",
    "station_name": "Cookham Rail Station",
    "latitude": 51.5574642725,
    "longitude": -0.7220603119
  },
  {
    "3alpha": "COP",
    "station_name": "Copplestone Rail Station",
    "latitude": 50.8144563375,
    "longitude": -3.751590555
  },
  {
    "3alpha": "COR",
    "station_name": "Corby Rail Station",
    "latitude": 52.4888659511,
    "longitude": -0.6883213327
  },
  {
    "3alpha": "COS",
    "station_name": "Cosford Rail Station",
    "latitude": 52.6448470661,
    "longitude": -2.3002712165
  },
  {
    "3alpha": "COT",
    "station_name": "Cottingley Rail Station",
    "latitude": 53.7678308023,
    "longitude": -1.5877119373
  },
  {
    "3alpha": "COV",
    "station_name": "Coventry Rail Station",
    "latitude": 52.4008284145,
    "longitude": -1.5134504816
  },
  {
    "3alpha": "COW",
    "station_name": "Cowdenbeath Rail Station",
    "latitude": 56.112083991,
    "longitude": -3.3431844925
  },
  {
    "3alpha": "COY",
    "station_name": "Coryton Rail Station",
    "latitude": 51.5204358321,
    "longitude": -3.2318279619
  },
  {
    "3alpha": "CPA",
    "station_name": "Corpach Rail Station",
    "latitude": 56.8428086004,
    "longitude": -5.121943037
  },
  {
    "3alpha": "CPH",
    "station_name": "Caerphilly Rail Station",
    "latitude": 51.5715771276,
    "longitude": -3.2184921838
  },
  {
    "3alpha": "CPK",
    "station_name": "Carpenders Park Rail Station",
    "latitude": 51.6283534546,
    "longitude": -0.3859168008
  },
  {
    "3alpha": "CPM",
    "station_name": "Chippenham Rail Station",
    "latitude": 51.4624852566,
    "longitude": -2.1153890334
  },
  {
    "3alpha": "CPN",
    "station_name": "Chapelton (Devon) Rail Station",
    "latitude": 51.0165289386,
    "longitude": -4.0247448242
  },
  {
    "3alpha": "CPT",
    "station_name": "Clapton Rail Station",
    "latitude": 51.5616436677,
    "longitude": -0.0569984893
  },
  {
    "3alpha": "CPU",
    "station_name": "Capenhurst Rail Station",
    "latitude": 53.2601877687,
    "longitude": -2.9422844784
  },
  {
    "3alpha": "CPW",
    "station_name": "Chepstow Rail Station",
    "latitude": 51.6401793133,
    "longitude": -2.6719110922
  },
  {
    "3alpha": "CPY",
    "station_name": "Clapham (N Yorks) Rail Station",
    "latitude": 54.1053962118,
    "longitude": -2.4103793434
  },
  {
    "3alpha": "CRA",
    "station_name": "Cradley Heath Rail Station",
    "latitude": 52.4696668258,
    "longitude": -2.0904823836
  },
  {
    "3alpha": "CRB",
    "station_name": "Corbridge Rail Station",
    "latitude": 54.9662659971,
    "longitude": -2.0184091796
  },
  {
    "3alpha": "CRD",
    "station_name": "Chester Road Rail Station",
    "latitude": 52.5356593313,
    "longitude": -1.832472162
  },
  {
    "3alpha": "CRE",
    "station_name": "Crewe Rail Station",
    "latitude": 53.089639576,
    "longitude": -2.4329694874
  },
  {
    "3alpha": "CRF",
    "station_name": "Carfin Rail Station",
    "latitude": 55.8073342674,
    "longitude": -3.9562432142
  },
  {
    "3alpha": "CRG",
    "station_name": "Cross Gates Rail Station",
    "latitude": 53.8049283962,
    "longitude": -1.4515849362
  },
  {
    "3alpha": "CRH",
    "station_name": "Crouch Hill Rail Station",
    "latitude": 51.5713028362,
    "longitude": -0.11712295
  },
  {
    "3alpha": "CRI",
    "station_name": "Cricklewood Rail Station",
    "latitude": 51.5584538453,
    "longitude": -0.212652067
  },
  {
    "3alpha": "CRK",
    "station_name": "Chirk Rail Station",
    "latitude": 52.9330999763,
    "longitude": -3.0656421264
  },
  {
    "3alpha": "CRL",
    "station_name": "Chorley Rail Station",
    "latitude": 53.6525509696,
    "longitude": -2.6268378803
  },
  {
    "3alpha": "CRM",
    "station_name": "Cramlington Rail Station",
    "latitude": 55.0877729503,
    "longitude": -1.5986098387
  },
  {
    "3alpha": "CRN",
    "station_name": "Crowthorne Rail Station",
    "latitude": 51.3667259688,
    "longitude": -0.8192566155
  },
  {
    "3alpha": "CRO",
    "station_name": "Croy Rail Station",
    "latitude": 55.9556707554,
    "longitude": -4.0359670002
  },
  {
    "3alpha": "CRR",
    "station_name": "Corrour Rail Station",
    "latitude": 56.7601959475,
    "longitude": -4.6905898827
  },
  {
    "3alpha": "CRS",
    "station_name": "Carstairs Rail Station",
    "latitude": 55.6910435615,
    "longitude": -3.6684653164
  },
  {
    "3alpha": "CRT",
    "station_name": "Chartham Rail Station",
    "latitude": 51.2572676132,
    "longitude": 1.0180692196
  },
  {
    "3alpha": "CRV",
    "station_name": "Craven Arms Rail Station",
    "latitude": 52.4425511842,
    "longitude": -2.8374211059
  },
  {
    "3alpha": "CRW",
    "station_name": "Crawley Rail Station",
    "latitude": 51.1122079127,
    "longitude": -0.1866457301
  },
  {
    "3alpha": "CRY",
    "station_name": "Crayford Rail Station",
    "latitude": 51.4482784318,
    "longitude": 0.1789624549
  },
  {
    "3alpha": "CSA",
    "station_name": "Cosham Rail Station",
    "latitude": 50.8419131216,
    "longitude": -1.0673147963
  },
  {
    "3alpha": "CSB",
    "station_name": "Carshalton Beeches Rail Station",
    "latitude": 51.3574078701,
    "longitude": -0.1697719787
  },
  {
    "3alpha": "CSD",
    "station_name": "Cobham & Stoke d'Abernon Rail Station",
    "latitude": 51.3180974283,
    "longitude": -0.389323466
  },
  {
    "3alpha": "CSG",
    "station_name": "Cressington Rail Station",
    "latitude": 53.3587637655,
    "longitude": -2.9120028641
  },
  {
    "3alpha": "CSH",
    "station_name": "Carshalton Rail Station",
    "latitude": 51.368451556,
    "longitude": -0.166343454
  },
  {
    "3alpha": "CSK",
    "station_name": "Calstock Rail Station",
    "latitude": 50.497783854,
    "longitude": -4.2090174117
  },
  {
    "3alpha": "CSL",
    "station_name": "Codsall Rail Station",
    "latitude": 52.6273016994,
    "longitude": -2.2017584348
  },
  {
    "3alpha": "CSM",
    "station_name": "Castleton Moor Rail Station",
    "latitude": 54.4671552873,
    "longitude": -0.9466648318
  },
  {
    "3alpha": "CSN",
    "station_name": "Chessington North Rail Station",
    "latitude": 51.3640376909,
    "longitude": -0.3006757682
  },
  {
    "3alpha": "CSO",
    "station_name": "Croston Rail Station",
    "latitude": 53.6675742668,
    "longitude": -2.7777477556
  },
  {
    "3alpha": "CSR",
    "station_name": "Chassen Road Rail Station",
    "latitude": 53.4461736991,
    "longitude": -2.3682321593
  },
  {
    "3alpha": "CSS",
    "station_name": "Chessington South Rail Station",
    "latitude": 51.3565467942,
    "longitude": -0.3081340168
  },
  {
    "3alpha": "CST",
    "station_name": "London Cannon Street Rail Station",
    "latitude": 51.5113821708,
    "longitude": -0.0902671514
  },
  {
    "3alpha": "CSW",
    "station_name": "Chestfield & Swalecliffe Rail Station",
    "latitude": 51.3602434955,
    "longitude": 1.0669610537
  },
  {
    "3alpha": "CSY",
    "station_name": "Coseley Rail Station",
    "latitude": 52.545096174,
    "longitude": -2.0857720388
  },
  {
    "3alpha": "CTE",
    "station_name": "Chatelherault Rail Station",
    "latitude": 55.7652139884,
    "longitude": -4.004665396
  },
  {
    "3alpha": "CTF",
    "station_name": "Catford Rail Station",
    "latitude": 51.4444046468,
    "longitude": -0.0262908765
  },
  {
    "3alpha": "CTH",
    "station_name": "Chadwell Heath Rail Station",
    "latitude": 51.5680380571,
    "longitude": 0.1289849608
  },
  {
    "3alpha": "CTK",
    "station_name": "City Thameslink Rail Station",
    "latitude": 51.5139360643,
    "longitude": -0.1035639706
  },
  {
    "3alpha": "CTL",
    "station_name": "Cattal Rail Station",
    "latitude": 53.997454781,
    "longitude": -1.3205413788
  },
  {
    "3alpha": "CTM",
    "station_name": "Chatham Rail Station",
    "latitude": 51.3803760302,
    "longitude": 0.5211794412
  },
  {
    "3alpha": "CTN",
    "station_name": "Charlton Rail Station",
    "latitude": 51.4868121438,
    "longitude": 0.0312832554
  },
  {
    "3alpha": "CTO",
    "station_name": "Carlton Rail Station",
    "latitude": 52.9651058655,
    "longitude": -1.0786513766
  },
  {
    "3alpha": "CTR",
    "station_name": "Chester Rail Station",
    "latitude": 53.1967089901,
    "longitude": -2.8795954639
  },
  {
    "3alpha": "CTT",
    "station_name": "Church Stretton Rail Station",
    "latitude": 52.5374347501,
    "longitude": -2.8036939757
  },
  {
    "3alpha": "CTW",
    "station_name": "Church & Oswaldtwistle Rail Station",
    "latitude": 53.7505339398,
    "longitude": -2.3912114012
  },
  {
    "3alpha": "CUA",
    "station_name": "Culrain Rail Station",
    "latitude": 57.9194946106,
    "longitude": -4.4042721672
  },
  {
    "3alpha": "CUB",
    "station_name": "Cumbernauld Rail Station",
    "latitude": 55.942019023,
    "longitude": -3.9803257587
  },
  {
    "3alpha": "CUD",
    "station_name": "Cuddington Rail Station",
    "latitude": 53.2399328038,
    "longitude": -2.5993047996
  },
  {
    "3alpha": "CUF",
    "station_name": "Cuffley Rail Station",
    "latitude": 51.708723054,
    "longitude": -0.1097585788
  },
  {
    "3alpha": "CUH",
    "station_name": "Curriehill Rail Station",
    "latitude": 55.9005593257,
    "longitude": -3.3187497327
  },
  {
    "3alpha": "CUM",
    "station_name": "Culham Rail Station",
    "latitude": 51.653795137,
    "longitude": -1.2364953245
  },
  {
    "3alpha": "CUP",
    "station_name": "Cupar Rail Station",
    "latitude": 56.3169774524,
    "longitude": -3.0087585168
  },
  {
    "3alpha": "CUW",
    "station_name": "Clunderwen Rail Station",
    "latitude": 51.8405496199,
    "longitude": -4.731870145
  },
  {
    "3alpha": "CUX",
    "station_name": "Cuxton Rail Station",
    "latitude": 51.3739247395,
    "longitude": 0.4617373125
  },
  {
    "3alpha": "CWB",
    "station_name": "Colwyn Bay Rail Station",
    "latitude": 53.2963736339,
    "longitude": -3.7254203797
  },
  {
    "3alpha": "CWC",
    "station_name": "Chappel & Wakes Colne Rail Station",
    "latitude": 51.9259156453,
    "longitude": 0.7585305397
  },
  {
    "3alpha": "CWD",
    "station_name": "Creswell (Derbys) Rail Station",
    "latitude": 53.2641317653,
    "longitude": -1.2163932459
  },
  {
    "3alpha": "CWE",
    "station_name": "Crowle Rail Station",
    "latitude": 53.589752526,
    "longitude": -0.8173624763
  },
  {
    "3alpha": "CWH",
    "station_name": "Crews Hill Rail Station",
    "latitude": 51.6844869604,
    "longitude": -0.1068615213
  },
  {
    "3alpha": "CWL",
    "station_name": "Colwall Rail Station",
    "latitude": 52.0798767311,
    "longitude": -2.3569466545
  },
  {
    "3alpha": "CWM",
    "station_name": "Cwmbran Rail Station",
    "latitude": 51.6565871606,
    "longitude": -3.01621063
  },
  {
    "3alpha": "CWN",
    "station_name": "Cowden Rail Station",
    "latitude": 51.1556324991,
    "longitude": 0.1100591285
  },
  {
    "3alpha": "CWS",
    "station_name": "Caersws Rail Station",
    "latitude": 52.5161370252,
    "longitude": -3.4325032748
  },
  {
    "3alpha": "CWU",
    "station_name": "Crowhurst Rail Station",
    "latitude": 50.8885735262,
    "longitude": 0.5013656464
  },
  {
    "3alpha": "CYB",
    "station_name": "Cefn-y-Bedd Rail Station",
    "latitude": 53.0988144368,
    "longitude": -3.0310532391
  },
  {
    "3alpha": "CYK",
    "station_name": "Clydebank Rail Station",
    "latitude": 55.9006838001,
    "longitude": -4.4043987103
  },
  {
    "3alpha": "CYN",
    "station_name": "Cynghordy Rail Station",
    "latitude": 52.0515055365,
    "longitude": -3.7482227844
  },
  {
    "3alpha": "CYP",
    "station_name": "Crystal Palace Rail Station",
    "latitude": 51.4181067019,
    "longitude": -0.0725839873
  },
  {
    "3alpha": "CYS",
    "station_name": "Cathays Rail Station",
    "latitude": 51.4888980023,
    "longitude": -3.178691896
  },
  {
    "3alpha": "CYT",
    "station_name": "Cherry Tree Rail Station",
    "latitude": 53.7328842568,
    "longitude": -2.5183765976
  },
  {
    "3alpha": "DAG",
    "station_name": "Dalgety Bay Rail Station",
    "latitude": 56.0420879876,
    "longitude": -3.367719234
  },
  {
    "3alpha": "DAK",
    "station_name": "Dalmarnock Rail Station",
    "latitude": 55.8420793253,
    "longitude": -4.2176948019
  },
  {
    "3alpha": "DAL",
    "station_name": "Dalmally Rail Station",
    "latitude": 56.40117566,
    "longitude": -4.9835317937
  },
  {
    "3alpha": "DAM",
    "station_name": "Dalmeny Rail Station",
    "latitude": 55.9863117819,
    "longitude": -3.381617481
  },
  {
    "3alpha": "DAN",
    "station_name": "Darnall Rail Station",
    "latitude": 53.3846003446,
    "longitude": -1.4125666166
  },
  {
    "3alpha": "DAR",
    "station_name": "Darlington Rail Station",
    "latitude": 54.5204574957,
    "longitude": -1.5473329223
  },
  {
    "3alpha": "DAT",
    "station_name": "Datchet Rail Station",
    "latitude": 51.4830766846,
    "longitude": -0.5794049222
  },
  {
    "3alpha": "DBC",
    "station_name": "Dumbarton Central Rail Station",
    "latitude": 55.9466469118,
    "longitude": -4.5669032007
  },
  {
    "3alpha": "DBD",
    "station_name": "Denby Dale Rail Station",
    "latitude": 53.5726454936,
    "longitude": -1.6632128419
  },
  {
    "3alpha": "DBE",
    "station_name": "Dumbarton East Rail Station",
    "latitude": 55.9422389396,
    "longitude": -4.5541195047
  },
  {
    "3alpha": "DBG",
    "station_name": "Mottisfont & Dunbridge Rail Station",
    "latitude": 51.0339180849,
    "longitude": -1.5470733978
  },
  {
    "3alpha": "DBL",
    "station_name": "Dunblane Rail Station",
    "latitude": 56.1858813154,
    "longitude": -3.9654784274
  },
  {
    "3alpha": "DBR",
    "station_name": "Derby Road (Ipswich) Rail Station",
    "latitude": 52.0505675726,
    "longitude": 1.182673697
  },
  {
    "3alpha": "DBY",
    "station_name": "Derby Rail Station",
    "latitude": 52.9165645679,
    "longitude": -1.4633507475
  },
  {
    "3alpha": "DCG",
    "station_name": "Duncraig Rail Station",
    "latitude": 57.3369773237,
    "longitude": -5.6371200748
  },
  {
    "3alpha": "DCH",
    "station_name": "Dorchester South Rail Station",
    "latitude": 50.7092808049,
    "longitude": -2.43724064
  },
  {
    "3alpha": "DCT",
    "station_name": "Danescourt Rail Station",
    "latitude": 51.5005053214,
    "longitude": -3.2339264723
  },
  {
    "3alpha": "DCW",
    "station_name": "Dorchester West Rail Station",
    "latitude": 50.7109424746,
    "longitude": -2.4425389873
  },
  {
    "3alpha": "DDG",
    "station_name": "Dorridge Rail Station",
    "latitude": 52.3720819757,
    "longitude": -1.7528919248
  },
  {
    "3alpha": "DDK",
    "station_name": "Dagenham Dock Rail Station",
    "latitude": 51.5260887461,
    "longitude": 0.1461308631
  },
  {
    "3alpha": "DDP",
    "station_name": "Dudley Port Rail Station",
    "latitude": 52.5246649483,
    "longitude": -2.0494739583
  },
  {
    "3alpha": "DEA",
    "station_name": "Deal Rail Station",
    "latitude": 51.2230510827,
    "longitude": 1.3988758198
  },
  {
    "3alpha": "DEE",
    "station_name": "Dundee Rail Station",
    "latitude": 56.4564750929,
    "longitude": -2.9712080372
  },
  {
    "3alpha": "DEN",
    "station_name": "Dean Rail Station",
    "latitude": 51.0424533409,
    "longitude": -1.6348555051
  },
  {
    "3alpha": "DEP",
    "station_name": "Deptford Rail Station",
    "latitude": 51.4788466717,
    "longitude": -0.0262441885
  },
  {
    "3alpha": "DEW",
    "station_name": "Dewsbury Rail Station",
    "latitude": 53.6921445094,
    "longitude": -1.6331100451
  },
  {
    "3alpha": "DFD",
    "station_name": "Dartford Rail Station",
    "latitude": 51.4473695898,
    "longitude": 0.2192754223
  },
  {
    "3alpha": "DFE",
    "station_name": "Dunfermline Town Rail Station",
    "latitude": 56.0681835684,
    "longitude": -3.4525246789
  },
  {
    "3alpha": "DFI",
    "station_name": "Duffield Rail Station",
    "latitude": 52.9884176714,
    "longitude": -1.4859685231
  },
  {
    "3alpha": "DFL",
    "station_name": "Dunfermline Queen Margaret Rail Station",
    "latitude": 56.0805680436,
    "longitude": -3.4214651879
  },
  {
    "3alpha": "DFR",
    "station_name": "Drumfrochar Rail Station",
    "latitude": 55.9412399388,
    "longitude": -4.7747462431
  },
  {
    "3alpha": "DGC",
    "station_name": "Denham Golf Club Rail Station",
    "latitude": 51.5805981628,
    "longitude": -0.5177663959
  },
  {
    "3alpha": "DGL",
    "station_name": "Dingle Road Rail Station",
    "latitude": 51.4400518803,
    "longitude": -3.1805995641
  },
  {
    "3alpha": "DGT",
    "station_name": "Deansgate Rail Station",
    "latitude": 53.4741986483,
    "longitude": -2.251049342
  },
  {
    "3alpha": "DGY",
    "station_name": "Deganwy Rail Station",
    "latitude": 53.2947621319,
    "longitude": -3.8333901264
  },
  {
    "3alpha": "DHM",
    "station_name": "Durham Rail Station",
    "latitude": 54.7793980708,
    "longitude": -1.5817625077
  },
  {
    "3alpha": "DHN",
    "station_name": "Deighton Rail Station",
    "latitude": 53.6684962139,
    "longitude": -1.7518983268
  },
  {
    "3alpha": "DID",
    "station_name": "Didcot Parkway Rail Station",
    "latitude": 51.6109553482,
    "longitude": -1.2428749913
  },
  {
    "3alpha": "DIG",
    "station_name": "Digby & Sowton Rail Station",
    "latitude": 50.7139764327,
    "longitude": -3.4735740965
  },
  {
    "3alpha": "DIN",
    "station_name": "Dingwall Rail Station",
    "latitude": 57.5942168221,
    "longitude": -4.4221973842
  },
  {
    "3alpha": "DIS",
    "station_name": "Diss Rail Station",
    "latitude": 52.3736757898,
    "longitude": 1.1237252182
  },
  {
    "3alpha": "DKD",
    "station_name": "Dunkeld & Birnam Rail Station",
    "latitude": 56.5570452529,
    "longitude": -3.5783964404
  },
  {
    "3alpha": "DKG",
    "station_name": "Dorking Rail Station",
    "latitude": 51.2409257562,
    "longitude": -0.3242277761
  },
  {
    "3alpha": "DKT",
    "station_name": "Dorking West Rail Station",
    "latitude": 51.2362217787,
    "longitude": -0.3399557367
  },
  {
    "3alpha": "DLG",
    "station_name": "Dolgarrog Rail Station",
    "latitude": 53.1863628038,
    "longitude": -3.8226405143
  },
  {
    "3alpha": "DLH",
    "station_name": "Doleham Rail Station",
    "latitude": 50.9185826306,
    "longitude": 0.6100042375
  },
  {
    "3alpha": "DLJ",
    "station_name": "Dalston Junction Rail Station",
    "latitude": 51.5461154595,
    "longitude": -0.0751109378
  },
  {
    "3alpha": "DLK",
    "station_name": "Dalston Kingsland Rail Station",
    "latitude": 51.5481480385,
    "longitude": -0.0756742388
  },
  {
    "3alpha": "DLM",
    "station_name": "Delamere Rail Station",
    "latitude": 53.2287882936,
    "longitude": -2.6665587536
  },
  {
    "3alpha": "DLR",
    "station_name": "Dalreoch Rail Station",
    "latitude": 55.9474070119,
    "longitude": -4.5778455124
  },
  {
    "3alpha": "DLS",
    "station_name": "Dalston (Cumbria) Rail Station",
    "latitude": 54.8461812399,
    "longitude": -2.9888562179
  },
  {
    "3alpha": "DLT",
    "station_name": "Dalton Rail Station",
    "latitude": 54.1542436887,
    "longitude": -3.1790013184
  },
  {
    "3alpha": "DLW",
    "station_name": "Dalwhinnie Rail Station",
    "latitude": 56.9351543012,
    "longitude": -4.2461914619
  },
  {
    "3alpha": "DLY",
    "station_name": "Dalry Rail Station",
    "latitude": 55.7062150527,
    "longitude": -4.7110594286
  },
  {
    "3alpha": "DMC",
    "station_name": "Drumchapel Rail Station",
    "latitude": 55.9048050133,
    "longitude": -4.3628637433
  },
  {
    "3alpha": "DMF",
    "station_name": "Dumfries Rail Station",
    "latitude": 55.072559544,
    "longitude": -3.604300351
  },
  {
    "3alpha": "DMG",
    "station_name": "Dinas (Rhondda) Rail Station",
    "latitude": 51.6178352115,
    "longitude": -3.437552058
  },
  {
    "3alpha": "DMH",
    "station_name": "Dilton Marsh Rail Station",
    "latitude": 51.2489808553,
    "longitude": -2.2079111292
  },
  {
    "3alpha": "DMK",
    "station_name": "Denmark Hill Rail Station",
    "latitude": 51.4682016412,
    "longitude": -0.0893351949
  },
  {
    "3alpha": "DMP",
    "station_name": "Dumpton Park Rail Station",
    "latitude": 51.3457052089,
    "longitude": 1.4258444805
  },
  {
    "3alpha": "DMR",
    "station_name": "Dalmuir Rail Station",
    "latitude": 55.911921651,
    "longitude": -4.4266657755
  },
  {
    "3alpha": "DMS",
    "station_name": "Dormans Rail Station",
    "latitude": 51.1557866779,
    "longitude": -0.0042811467
  },
  {
    "3alpha": "DMY",
    "station_name": "Drumry Rail Station",
    "latitude": 55.9045847687,
    "longitude": -4.3854571409
  },
  {
    "3alpha": "DND",
    "station_name": "Dinsdale Rail Station",
    "latitude": 54.5147386026,
    "longitude": -1.4670752041
  },
  {
    "3alpha": "DNG",
    "station_name": "Dunton Green Rail Station",
    "latitude": 51.2964873167,
    "longitude": 0.1709649125
  },
  {
    "3alpha": "DNL",
    "station_name": "Dunlop Rail Station",
    "latitude": 55.7118747945,
    "longitude": -4.5323721773
  },
  {
    "3alpha": "DNM",
    "station_name": "Denham Rail Station",
    "latitude": 51.5788378122,
    "longitude": -0.4974160111
  },
  {
    "3alpha": "DNO",
    "station_name": "Dunrobin Castle Rail Station",
    "latitude": 57.9855164027,
    "longitude": -3.9489241071
  },
  {
    "3alpha": "DNS",
    "station_name": "Dinas Powys Rail Station",
    "latitude": 51.4316627486,
    "longitude": -3.2183612689
  },
  {
    "3alpha": "DNT",
    "station_name": "Dent Rail Station",
    "latitude": 54.2824184109,
    "longitude": -2.3636026167
  },
  {
    "3alpha": "DNY",
    "station_name": "Danby Rail Station",
    "latitude": 54.4661651822,
    "longitude": -0.9109721492
  },